id,ota_id,hotel_id,name,address,zip_code,city,country,latitude,longitude
1,4,10618901,"\"\"\"Appartamento del Mare Gliaca\"\" con vista sulle Isole Eolie","",+393391878856,"Via del Sole, 19 piano 3",Gliaca di Piraino,0,38.162820000000000000
2,4,11054160,"\"\"\"Beautiful apartment 130m2","",+34 658 31 61 18,"2 Calle la Marina EDIFICIO PRESIDENTE, Escalera 3, piso 4ºA",Almería,0,36.831200000000000000
3,1,10705268,"\"\"\"Belvedere Residence\"\"","",+48 504 879 674,Sułkowicka 2/4 lokal 66,Varsavia,0,52.205510000000000000
4,1,10496425,"\"\"\"CHEZ HUGO\"\" Tout confort-Parc à 100m-Accès rapide aux télécabine d'Ax",Pêche,FR,Grottes,"Cascades\"","",6.000000000000000000
5,3,10511302,"\"\"\"COSY\"\" Appartement confort de 50m2 à 150m de la Mer et du Centre ville","",+33 6 88 77 05 65,10 Rue des Cerisiers,Canet-en-Roussillon,0,42.698860000000000000
6,1,10436005,"\"\"\"Casa al Mare\"\" Ferien Apartment mit Wohlfühlgarantie!",Strand,ES,Golf,"Wandern\"","",0
7,2,10399785,"\"\"\"Casa20200\"\" 2 Apartments bis 150qm für Business",Gruppen,DE,Handwerker Nahe BERLIN !! 150 qm Apartment for BUSINESS,"FAMILIES near BERLIN!!\"","",0
8,4,10503054,"\"\"\"Chambre Merisier\"\" dans une ferme avec étang privé au coeur de la région des mille étangs","",+33621858469,"Derrière les Hauts Champs, Ferme des Hauts Champs, Route D266",Esmoulières,0,47.819730000000000000
9,4,11451077,"\"\"\"Chez J-P\"\" Bel appartement 2 p classé 3 étoiles situé au calme avec terrasse","",+33750252799,31 Impasse des Maisons Neuves,Gérardmer,0,48.081430000000000000
10,2,10479196,"\"\"\"Chezvero46\"\" residence claire rive avec piscine","",+33671159390,Les Gaulies,Prayssac,0,44.501140000000000000
11,4,11548709,"\"\"\"Château Saint Louis 2\"\" Vue Mer panoramique","",+33 6 65 45 70 69,1 Promenade Reine Astrid,Mortola Superiore,0,43.785080000000000000
12,2,11322158,"\"\"\"Château Saint Louis\"\" Vue Mer panoramique","",+33 6 65 45 70 69,1 Promenade Reine Astrid,Mortola Superiore,0,43.785060000000000000
13,1,10516412,"\"\"\"Chênes et Romarins\"\"",Ombrage,44.15269,"Nature\"","",22.000000000000000000,0
14,4,10826108,"\"\"\"Cultural Athens\"\" Kolonaki","",+306973660500,Παναγιώτου Αναγνωστοπούλου 19,Atenas,0,37.978310000000000000
15,2,10509614,"\"\"\"Côté Soubeyran\"\" Centre-ville",Piscine,43.21792,"Terrasse\"","",13.000000000000000000,0
16,2,10513725,"\"\"\"Côté cour","",+33649529594,1 Impasse Paul Rougnon,Chauvigny,0,46.603790000000000000
17,2,11010273,"\"\"\"DREAM\"\" Magnifique Vue Mer",parking,42.69034,"le rêve\"","",1.000000000000000000,0
18,2,10685870,"\"\"\"Departamento Vacacional Monte Mola\"\" Todo lo que necesitas",SMART TV,"",ALBERCA,CLIMA,0,0
19,1,8593971,"\"\"\"DueEmme Lodge\"\"","",+393349567040,17 Via Grande,Livorno,0,43.552080000000000000
20,1,10459484,"\"\"\"El Farito\"\"","",+34 615 06 65 23,"C/ Arenas del Faro, modulo 10, 1º - 7 de la localidad de Mijas (Málaga)",La Cala de Mijas,0,36.512510000000000000
21,2,10448701,"\"\"\"El Porton\"\" (El Borge","",+34667528806,Garcia Lorca no 2,El Borge,0,36.814500000000000000
22,4,10168172,"\"\"\"Fishermans House\"\" - Beautiful 4 Bed 3 Bath House - Ideal Families",Parking,Grimsby,Netflix,W-Fi and Close to Beaches,0,""
23,4,10394152,"\"\"\"Have a nice stay\"\" Messewohnung","",+49 173 3472704,Kasparstraße 25,Rösrath,0,50.891560000000000000
24,3,8344399,"\"\"\"Honeysuckle House Chester\"\" by Greenstay Serviced Accommodation - Stunning 3 Bed House Which Sleeps 6",Close To City Walls,53.19378,"Shops & Restaurants\"","",0,0
25,2,10649449,"\"\"\"Il Cantuccio di Gioia\"\"","",+393496267860,12 Corso Cavour,Brescia,0,45.534910000000000000
26,2,10012104,"\"\"\"Küstenhus\"\" Klein Zicker F669 mit Wasserblick",Sauna,54.32111,"Terrasse\"","",0,0
27,1,10674685,"\"\"\"LE 21\"\"","",+212 667-191910,21 Rue Jbel Lakhdar,Sidi Mimoun,0,31.627810000000000000
28,2,11057233,"\"\"\"LE JARDIN\"\" Chambre de charme","",+33 6 17 95 63 93,7 Rue de Cîteaux,Meursault,0,46.978500000000000000
29,4,10469080,"\"\"\"LE NORDIQUE\"\" Centre Tarbes",2-4 pers,43.23511,"WIFI\"","",57.000000000000000000,0
30,3,10658501,"\"\"\"La Casa di Magda\"\" INTERO COTTAGE sul LAGO con CAMINO","",+39 338 343 0988,Via Piave,Lomnago,0,45.803220000000000000
31,1,10632898,"\"\"\"La Casita\"\"",Parking privato,43.56084,"mansarda e terrazza\"","",0,0
32,3,11008954,"\"\"\"La Résidence du Casino\"\" Plein centre","",+33665457069,3 Rue Pasteur,Menton,0,43.773740000000000000
33,4,11057517,"\"\"\"La Vigne\"\" chambre d'hôtes","",+33685854581,25 chemin des villard,Saint-Andéol,0,44.802350000000000000
34,3,10416838,"\"\"\"La Vista Bonita\"\" - La Mata","",+48 501 776 616,17 Calle Aquiles,La Mata,0,38.009610000000000000
35,4,11507883,"\"\"\"La cabane du sentier\"\"","",+33678921905,212 Sentier de lÉglise,Blériot-Plage,0,50.943100000000000000
36,1,10496145,"\"\"\"La vieille Grange\"\"","",+330633710979,16 Route de Herigoutte,Rehaupal,0,48.138450000000000000
37,2,11548581,"\"\"\"Le Bristol\"\"",Centre,43.77209,"Proche Gare\"","",24.000000000000000000,0
38,4,10464959,"\"\"\"Le Cocon d'Estelle\"\" Grand Studio vue mer","",+33 6 51941701,2 Avenue Jean Moulin,Villers-sur-Mer,0,49.329910000000000000
39,2,10509464,"\"\"\"Le Cocon\"\" - 3 chambres et terrasse","",+33 6 07 33 60 19,4 Boulevard du 4 Septembre,Castelsarrasin,0,44.040390000000000000
40,1,11374857,"\"\"\"Le Grand Hotel\"\" Prestigieux et Unique","",+33 6 65 45 70 69,55 Porte de France,Menton,0,43.784260000000000000
41,4,10912611,"\"\"\"Le Jardin de Zola\"\"","grand jardin\"",3.39998,THREE,Villeneuve,0,0
42,1,11366264,"\"\"\"Le Logis Saint Michel\"\" Centre Historique","",+33665457069,38 Rue Longue,Menton,0,43.777750000000000000
43,1,10521254,"\"\"\"Le Rive-Gauche\"\" appartement tout équipé","",+33620516677,75 Rue Jean Jaurès,Châlons-en-Champagne,0,48.953470000000000000
44,3,11375711,"\"\"\"Le Rooftop des Rivages\"\" Immense terrasse","",+33 6 65 45 70 69,71 Allée Louis Moreno,Menton,0,43.772840000000000000
45,4,9842312,"\"\"\"Le Soleil Levant\"\" avec balcon et parking privé","",+33637473046,12 Boulevard Eugène le Roy,Sarlat-la-Canéda,0,44.890370000000000000
46,3,11548725,"\"\"\"Le Victoria Beach\"\" Vue Mer Plein Centre","",+33 6 65 45 70 69,8 Avenue Félix Faure,Menton,0,43.773830000000000000
47,2,10373405,"\"\"\"Les échalas I\"\" - Appartement avec cuisine et place privée au cœur du Lavaux","",+41 79 919 53 23,1 Route de Chardonne,Chexbres,0,46.482250000000000000
48,2,10999184,"\"\"\"Libelle am Bernsteinsee\"\" Zimmer in Stüde","",+491718080317,605 Uferstraße,Lessien,0,52.566850000000000000
49,4,10904208,"\"\"\"Libelle am Bernsteinsee\"\" in Stüde","",+49 1718080317,605 Uferstraße,Lessien,0,52.566940000000000000
50,1,10623576,"\"\"\"Lo charme\"\" a 5 minuti a piedi da Ospedale ed Universita'","",+39 3383532963,26 Via XX Settembre Primo piano,Noveri,0,45.446950000000000000
51,1,10910672,"\"\"\"Location Vue MER et ESTEREL\"\"",T2,Agay,piscines,parking,0,""
52,3,10511332,"\"\"\"MER\"\" Séjour détente tout confort","",+33688770565,32 Promenade de la Côte Vermeille,Canet-en-Roussillon,0,42.691000000000000000
53,3,10670322,"\"\"\"Mini apartamentai\"\"","",+370 68363030,8C Ganyklų gatvė,Palanga,0,55.920090000000000000
54,2,10418198,"\"\"\"NEW\"\" Deluxe designer Villa Infinity",own exclusive heated private pool,28.95504,"subtropical gardens\"","",0,0
55,2,7129789,"\"\"\"NICE!\"\" Ocean view of Ishigaki island",TWO,+81980836543,1216-323 Kabira,Kabira,0,24.447760000000000000
56,4,10721463,"\"\"\"NOWY APARTAMENT\"\" sypialnia",1500 m od morza,54.39439,"Netflix\"","",0,0
57,4,11322220,"\"\"\"Na Skale \"\" Apartment in center","",+421948604930,18 Podzámocká,Bojnice,0,48.777990000000000000
58,1,10491087,"\"\"\"Notre Bastide\"\" Maison et table d'hôtes","",+330616021681,LIEU DIT LA FONT DU ROC,Marcillac-Saint-Quentin,0,44.944450000000000000
59,2,11307342,"\"\"\"Ocean View\"\" Teneriffa Süd",Komplex Tamara,"",FeWo,2SZ,2.000000000000000000,0
60,2,10683241,"\"\"\"Ohana\"\" Marina Platino Plus","",+528119083365,Boulevard Marina Mazatlan,Los Cerritos,0,23.274730000000000000
61,4,10511306,"\"\"\"PLAGE\"\" Splendide Vue Mer depuis la chambre et le salon cuisine","",+33688770565,13 Promenade de la Côté Vermeille,Canet-en-Roussillon,0,42.695330000000000000
62,4,10474391,"\"\"\"Palomar\"\"","",+33 6 03 68 10 00,maison guirautenea 7 Chemin de Chingaletenia,Saint-Jean-de-Luz,0,43.396850000000000000
63,2,10620860,"\"\"\"Parva sed apta mihi\"\"","",+390815464305,"BORGO FARACCHIO, 3",Palinuro,0,40.028150000000000000
64,3,10859223,"\"\"\"Rêves de Gamins\"\"","",+33 6 26805600,35 Chemin de Saint-Mars la Brière,Yvré-lʼÉvêque,0,48.024030000000000000
65,2,10859224,"\"\"\"Rêves de Gamins\"\"","4 couchages dans gîte de campagne \"\"La Camusière\"\"",48.02403,"proche du Pôle Européen et du circuit des 24h\"","",35.000000000000000000,0
66,3,11434167,"\"\"\"Sainte Lucie\"\" à 400m de la plage","",+330662373021,Gianzerra,Olmucciu,0,41.698420000000000000
67,3,11511275,"\"\"\"Su Casa\"\" Apartment Deluxe - including private underground parking space","",+49 177 3984003,13 Birkenhof,Düsseldorf,0,51.194420000000000000
68,1,10982101,"\"\"\"Sweet escape\"\" studio apartment (balcony",FIVE,"","Lonjicka ulica 2a Zagreb, Croatia",Donji Bukovec,0,45.803897000000010000
69,2,11557407,"\"\"\"Terrasse du Bristol\"\"","",+33 6 65 45 70 69,26 Avenue Carnot,Menton,0,43.772220000000000000
70,4,10813544,"\"\"\"The Gatehouse\"\"","",+27833018533,Captain Duthie Extension,Brenton-on-Sea,0,-34.057060000000000000
71,2,10383754,"\"\"\"Villa Seute Deern\"\" Trassenheide","",+49 1523 4198824,Bahnhofstrasse 27,Trassenheide,0,54.088450000000000000
72,2,10511373,"\"\"\"ZEN\"\" 100m de la plage avec parking","",+33688770565,12 Avenue de Catalogne,Canet-en-Roussillon,0,42.696150000000000000
73,1,10371819,"\"\"\"alti Post\"\" zentralgelegene","",+41794367104,9 Täschalpstrasse,Taesch,0,46.066580000000000000
74,4,10489041,"\"\"\"l'Escapade\"\" Spacieux DUPLEX Valfréjus avec balcon et garage privé Grand confort 6 personnes","","","","","",""
75,1,11499606,"\"\"\"new Listing\"\" Spacious 3 Bedroom Large Home Close to Downtown","& East Liberty! 3 Home by Redawning\"",-79.881,THREE,901 Ross Avenue,0,0
76,4,10672887,"\"\"\"Čiekuri\"\"\"","\"\"\"Čiekuri\"\"",+371 26 720 023,"Lielie Dzerkaļi\"",Aglona,0,56.119500000000000000
77,3,5346675,"\"\"\"Ранчо\"\" - тераса без комарів","",+380 95 0194663,Гагарина 38,Uzhhorod,0,48.605500000000000000
78,4,11020757,"\"2-Bedroom Condo with UNLI WIFI, 50\"\" TV",Xbox One,14.40524,"Pool\"","",0,0
79,3,10462591,"\"2ndhomes Tampere \"\"Espa\"\" Apartment - New Apt","",+358 40 7577574,Tampellan Esplanadi 7 A 72,Tampere,0,61.505390000000000000
80,1,10462646,"\"2ndhomes Tampere \"\"Näsijärvi\"\" Luxury Apartment - Sauna","",+358407577574,9 Tampellan esplanadi A 21,Tampere,0,61.505770000000000000
81,4,8726844,"\"2ndhomes Tampere \"\"Rautatieasema\"\" Apartment - Heartful New Apt with Balcony in the City Center close to Railway Station","",+358 40 757 757 4,"26B, 42 Rautatienkatu",Tampere,0,61.495960000000000000
82,3,10399808,"\"4 Sterne Wohnen \"\"Zum alten Forsthof\"\" am Schlosspark","",+49 4521 7956888,Jungfernort 12 Zum alten Forsthof,Eutin,0,54.135090000000000000
83,3,10399811,"\"4 Sterne Wohnen \"\"Zum alten Forsthof\"\" am Schlosspark","",+4945217956888,12 Jungfernort Zum alten Forsthof,Eutin,0,54.135030000000000000
84,3,5269406,"\"7 Pines - \"\" An English Retreat\"\"","",+91 99103 84482,"7 Pines District- Solan, Kasauli, Himachal Pradesh",Kasauli,0,30.946770000000000000
85,3,10444792,"\"ALOELUXVILLA COM \"\" I \"\"","",+34626787257,Carretera Conil - Tegoyo 37,Conil - Lanzarote,0,28.967910000000000000
86,4,10344549,"\"APART \"\"Kazanlak\"\"gsm Ziro",Nine,Eight,Eight,Seven,0,0
87,2,10713910,"\"APARTAMENT \"\"ADELL\"\" - MIĘDZYZDROJE","",+48601584211,8 Nowomyśliwska,Międzyzdroje,0,53.926450000000000000
88,2,10454874,"\"Apartamentos Alcossebre \"\"El Faro Apartaments Alcossebre\"\" Piscina","",+34 669 29 94 40,4 Avenida Manila,Alcocéber o Alcocebre,0,40.253190000000000000
89,4,10344629,"\"Apartment \"\"Bella\"\"\"","\"ул.\"\"Васил Друмев\"\" 22",+359 87 945 5532,"вх.А\"",Gabrovo,0,42.879060000000000000
90,3,10385943,"\"Apartment \"\"Im Sonneneck\"\" bis 4 Personen mit Parkplatz",Netflix im Thüringer Wald,50.51115,"Schleusingen\"",FOUR,0,0
91,3,10379824,"\"Apartmán \"\"U nás doma\"\" v chatě ALFA Černý Důl\"","\"Apartmán \"\"U nás doma\"\" v chatě ALFA Černý Důl 274 přízemí naproti hlavnímu vchodu",+420 739 592 181,"byt číslo 13\"",Černý Dŭl,0,50.635870000000000000
92,4,10469105,"\"Appart \"\"Pins & parasol\"\"","",+33681230178,49 Impasse Le Castelar,Vidauban,0,43.457380000000000000
93,2,10493318,"\"Appartement \"\"Cassiopée - Villa Mon Etoile\"\" - 2 chambres",Le Touquet,50.52544,"200m centre-ville et plage\"","",40.000000000000000000,0
94,1,10493335,"\"Appartement \"\"Helios",terrasse,FR,Le Touquet,"à 300m centre-ville et plage\"","",40.000000000000000000
95,1,11443964,"\"Appartment in \"\"Rincon de Loix\"\"","",+34615102942,42 Avenida de Estocolmo 3º B,Rincón de Loix,0,38.536810000000000000
96,4,10435007,"\"Boutique Hostal \"\"Born53\"\" im Stadtkern von Llucmajor","",+34642102558,53 Carrer d'es Born,Llucmajor - Mallorca,0,39.491030000000000000
97,3,10694649,"\"Bungalow \"\"kleine\"\" Deichperle","",+49 1520 8885423,Plattedijk,Lemmer,0,52.847530000000000000
98,3,11019679,"\"Cabaña \"\"Alexa\"\"","",+523316041620,Jalisco 405,Mazamitla,0,19.922330000000000000
99,1,11534558,"\"Casa \"\"Arcobaleno\"\"","",+393494085734,21 Via Francesco Crispi,Alì Terme,0,38.009090000000000000
100,4,10434717,"\"Casa \"\"La Breña\"\". Surf","",+34 636 88 99 49,Calle Bajamar 20,Los Caños de Meca,0,36.191470000000000000
101,1,10639164,"\"Casa \"\"Le Cascine\"\"","",+393332962084,16 Via Ottavio Rinuccini,Firenze,0,43.783720000000000000
102,4,11317584,"\"Casa Rural \"\"A Escola\"\" - Meãs","",+351965406449,Rua Doutor António Lourenço 59,Piódão,0,40.152520000000000000
103,2,11397624,"\"Casa Rural \"\"Casa da Professora\"\" - Meãs","",+351 965406449,59 Rua Doutor António Lourenço,Piódão,0,40.152480000000000000
104,4,10625120,"\"Casa Vacanze \"\"Donna Manu'",tra Stazione Centrale,40.8512,"Metro e Aeroporto\"","",18.000000000000000000,0
105,4,10422144,"\"Cave House with \"\"Pool\"\"","",+34 695152580,"Calle Mama Felipa, 12",Pico de Viento - Gran Canaria,0,28.076500000000000000
106,2,10370243,"\"Chalet \"\"Ici et maintenant","",+1 514-814-6616,124 Montée Ashton,Esterel,0,46.069630000000000000
107,4,10337641,"\"Chalet \"\"LEscale \"\"","",+32472952788,Les Brûlins 15,Resteigne,0,50.093420000000000000
108,4,10693825,"\"Chalet 't Veluws stulpje \"\"GENIET","",+31610883845,11c Batosweg,Putten,0,52.229870000000000000
109,2,10340801,"\"Chalet de charme, le \"\"Caribou Lodge\"\"","",+32477674767,Enkelberger Mühle,Krinkelt,0,50.422730000000000000
110,2,9638081,"\"Chambres D'hôte \"\"l'écureuil\"\" Proche de Mons","à Côté de Spark'oh\"",3.89827,THREE,"Rue de Grande-Bretagne, 14",0,0
111,4,10468406,"\"Cosy Studio Cours Lafayette \"\"Clim","",+33 6 61 14 64 90,12 Rue de Lorgues,Toulon,0,43.123110000000000000
112,1,5238915,"\"Cosy T2 Port de Toulon - Stade Mayol \"\"Clim","",+330661146490,12 Rue Etienne Pelabon,Toulon,0,43.118470000000000000
113,2,11290865,"\"Fantabulous Downtown Abode w King Bed, 65\"\" TV","",+385912323166,2 Ulica kralja Držislava,Zagreb,0,45.809720000000000000
114,1,11514152,"\"FeWo \"\"Biela\"\"",zentral,DE,ruhig,"neu\"","",14.000000000000000000
115,1,7157913,"\"FeWo \"\"Marie","",+49 15110082445,3 Immenstädter Straße,Oberstaufen,0,47.555090000000000000
116,1,11517070,"\"FeWo Ferienwohnung Usedom \"\"Kleines Ostseeglück\"\" in Peenemünde bis 4 Personen","",+491717328448,30 Hauptstraße EG,Peenemünde,0,54.135900000000000000
117,2,11487691,"\"Ferienhaus \"\"Am Strand\"\"",THREE,49-40244249228,Jungfernstieg 24,Eckernförde,0,54.469334000000000000
118,4,11531607,"\"Ferienhaus \"\"Sofia\"\" im Herzen von Detmold-Altstadt","",+491606072985,15 Adolfstraße,Detmold,0,51.934070000000000000
119,3,11488230,"\"Ferienhaus \"\"heißer Sand\"\"",TWO,49-40244249240,Möwenweg 2,Wittdün,0,54.626470000000000000
120,3,11498687,"\"Ferienwohnung \"\"Im Kelterhaus\"\"",THREE,49-40244249240,Gaistalstraße 20,Bad Herrenalb,0,48.794425000000000000
121,4,11498688,"\"Ferienwohnung \"\"Im Kelterhaus\"\"","",49-40244249240,Gaistalstraße 20,Bad Herrenalb,0,48.794425000000000000
122,2,11498689,"\"Ferienwohnung \"\"Im Kelterhaus\"\"",THREE,49-40244249240,Gaistalstraße 20,Bad Herrenalb,0,48.794390000000000000
123,2,10386026,"\"Ferienwohnung \"\"Im Türmchen\"\" inklusive WLAN","",+4917642008572,1 Am Alten Rathaus Wohnung,Schleiden,0,50.527580000000000000
124,3,10403352,"\"Ferienwohnung \"\"Merle\"\"","",+49 5165 2912844,Harzburger Straße 27b Wohnung 3,Braunlage,0,51.731510000000000000
125,4,10400476,"\"Ferienwohnung \"\"Zwei Birken\"\" in Ellwangen","",+491636018245,Engelhardsweiler 1,Ellwangen,0,48.972050000000000000
126,1,11492566,"\"Ferienwohnung \"\"franziska Wünsche\"\"",THREE,49-40244249240,Barteldesplatz 3,Bühlau,0,51.053783000000000000
127,4,10386772,"\"Fewo \"\" Schmiede \"\" Innenstadt",große Terrasse,49.98052,"Wlan inkl.\"","",52.000000000000000000,0
128,4,10421832,"\"Finca La Huerta- \"\"House A\"\" with pool","",+34 699 13 78 53,"Peatonal Los Granadillos, 2",San Juan de la Rambla - Tenerife,0,28.390510000000000000
129,2,10457811,"\"Fliegerhaeusle's Beach House Fuerteventura \"\"Adults Only","",+49 1738020431,6 Calle Risco Blanco,Costa Calma - Fuerteventura,0,28.156730000000000000
130,2,11393974,"\"Greek \"\"Jungle Villa\"\"","",+919625082332,"s/y no. 306/27, Behind Mama's Corner",Siolim,0,15.614330000000000000
131,1,10496663,"\"Gîte \"\"Côté Terre\"\"","",+33771783308,le Domaine des Délices Le Chaigneau,La Roche-sur-Yon,0,46.630620000000000000
132,2,11460545,"\"Gîte \"\"Dans les Airs\"\"","",+33771783308,Le Domaine des Délices Le Chaigneau,La Roche-sur-Yon,0,46.630620000000000000
133,4,10845793,"\"Gîte \"\"Près de l'Eau\"\"","",+33771783308,Le Domaine des Délices Le Chaigneau,La Roche-sur-Yon,0,46.630660000000000000
134,2,10522367,"\"Gîte \"\"Rêves de Gamins\"\"","",+33 6 26805600,2379 Route de Saint Michel,Yvré-lʼÉvêque,0,48.035670000000000000
135,2,10482904,"\"Gîte de Saint Ladre \"\"La Forge\"\"","",+33632256477,1 ferme de saint ladre,Moussy,0,49.069660000000000000
136,3,10482905,"\"Gîte de Saint Ladre \"\"La Grange\"\"","",+33632256477,1 ferme de saint ladre,Moussy,0,49.069770000000000000
137,4,10482903,"\"Gîte de St Ladre \"\"L'Atelier\"\"","",+33632256477,1 ferme de saint ladre,Moussy,0,49.069620000000000000
138,1,10515342,"\"Gîtes \"\"LA JUMEL\"\" 3 Gîtes 6 à 12 pers max 34p","à la Campagne et à la Mer\"",1.88692,THREE,"58, Rte nationale",0,0
139,3,11426796,"\"HI-END studio condo, 49\"\" tv","",+639458903988,"23 Congressional Avenue, proj. 8, qc. Unit 1509, congressional town center",Quezon City,0,14.671450000000000000
140,4,10856166,"\"Heated Pool, Fireplace, 70\"\" TV","",+1 941-400-7782,7150 North Tamiami Trail 606,Longboat Key,0,27.413360000000000000
141,4,10493304,"\"Historic \"\"Touquettoise\"\" villa",100m from the beach,50.52569,"with sunny terrace and private garden\"","",26.000000000000000000,0
142,2,11310809,"\"Holiday House \"\"M\"\" Omiš - Newly renovated house with swimming pool",gym,43.4408,"large terrace with amazing view on town and 6 parkplaces\"","",0,0
143,4,10936637,"\"Hostería \"\"Don Pelu\"\" - Máncora","",+51987016323,525 Martín Waise,Máncora,0,-4.105860000000000000
144,4,10191784,"\"Hotel Admire Inn \"\"Atta Market",THREE,+91 7838437107,"E Block, Pocket E, Sector 19, Noida, Uttar Pradesh 201301",Noida,0,28.573870000000000000
145,3,10186167,"\"Hotel Admire Inn \"\"Near Atal Chowk","Vasundhara\"\"\"",77.35985,THREE,"C-34, Sector-15, Vasundhara, Ghaziabad Uttar Pradesh",0,0
146,1,10929811,"\"La \"\"Casina nel borgo\"\"","",+393348035832,Via dell' Ardito,Amola,0,44.253020000000000000
147,1,10672530,"\"Lauku māja \"\"Zvejnieki\"\"\"","\"\"\"Zvejnieki\"\"",+37129976617,"Tomes pagasts\"",Ogre,0,56.805060000000000000
148,1,10477840,"\"Le \"\"LA FAYETTE\"\"","",+33662583362,2ème étage 2 Place Amiral Pierre Martin,Rochefort,0,45.945050000000000000
149,1,10646346,"\"Le Bozze \"\"Casa Olivo\"\"con piscina","",+393272268356,"199 Strada Provinciale Bolgherese 1 piano, interno 4",Bolgheri,0,43.204190000000000000
150,3,10503661,"\"Le Fleur\"\"H\"\"on 11 d'Honfleur","WIFI et Parking gratuits\"",0.20545,TWO,Hauts de Honfleur Résidence Adonis,0,0
151,1,10500580,"\"Lovely \"\"Provence\"\" villa with sea view","",+33 6 87 00 42 27,34 les Hauts de Grimaud,Beauvallon,0,43.295020000000000000
152,3,10928303,"\"Lovely Apartments in City Centre \"\"Third floor","",+39 331 264 7089,21 Via del Gambero,Rome,0,41.903610000000000000
153,1,11324528,"\"Luxury apartment \"\"Volmolen\"\" with garden","",+32479867107,30 Rietvoornstraat Residentie Volmolen nr.30 bus 1,Kuurne,0,50.855850000000000000
154,1,10911158,"\"Maison calme et rénovée \"\"Oléa Provence\"\"","",+33662888665,910 Chemin de la Mer,Saint-Cannat,0,43.614860000000000000
155,3,10500400,"\"Maison indépendante \"\"Chez Yvette et André\"\"",près Colmar,FR,Ribeauvillé,"Europa-Park\"","",1.000000000000000000
156,4,10923866,"\"Mobile home \"\"Sun\"\" Jezera Village","",+385981747189,Lovišća,Otok Murter,0,43.793480000000000000
157,2,10400435,"\"Modernes Appartement \"\"HOME\"\" near Erfurt",Entertainmentpaket,DE,WLAN,"Einkaufsmöglichkeiten und kostenlosen Parkplatz für PKW und Transporter\"","",82.000000000000000000
158,1,10314546,"\"Moderno Duplex \"\"B\"\"","",+34603242157,Rúa Lagareu,Riveira,0,42.565880000000000000
159,2,11481165,"\"Montecito Luxe Home \"\"location","Location!!\"\" 4 Bedroom Residence by Redawning\"",-119.6403,FOUR,75 Olive Mill Road,0,0
160,1,6792109,"\"NEW Gulf Front 12bd/12.5 bath home, \"\"The Grand PEARL\"\"","",+12515048170,2625 West Beach Blvd,Cedar Grove,0,30.235000000000000000
161,3,10843640,"\"NEW! \"\"The Royals\"\" Stylish","",+12245011450,2050 Royal Bay Boulevard Unit 6,Buenaventura Lakes,0,28.324680000000000000
162,3,10397264,"\"Neu Gemütliche Ferienhaus mit 3 Ferienwohnungen \"\"Max \"\"","",+496451718488,Nuhnestraße,Hallenberg,0,51.120580000000000000
163,4,10447015,"\"New holiday house \"\"Casa miAlina\"\" with private pool","",+49 173 5602639,"Carrer de Ponent, 3",Cambrils,0,41.058230000000000000
164,3,11521603,"\"Newly Renovated Studio w 65\"\" TV","",+385955944242,3A Biankinijeva ulica Downstairs Street View Left,Zagreb,0,45.812080000000000000
165,1,10937366,"\"Noclegi \"\"LAS WYPAS\"\" Domek drewniany","",+48509699747,Ul.Wieleńska 17b,Trzcianka,0,53.030750000000000000
166,3,10698250,"\"Nordlandshuset \"\"Lottebakken\"\"","",+47 412 07 007,96 Øyaveien,Ballstad,0,68.072510000000000000
167,4,10822088,"\"Nowe domki w górach \"\"Pod Skrzycznym\"\"","",+48608274307,Słotwina Popiełuszki ul. Szczygła 5,Lipowa,0,49.703090000000000000
168,1,11437740,"\"Ocean Lakes Beach House! \"\"Coastal Cottage\"\" - Walking Distance to the Beach - 2 Bedroom","",+1 843-999-2837,6001 S. Kings Hwy Lot 8026,Surfside Beach,0,33.628630000000000000
169,2,10812005,"\"Overport, 2 Sleeper \"\"Strictly Halaal","",+27765271432,69 View Street,Durban,0,-29.830780000000000000
170,4,10385406,"\"Penthouse \"\"Marc Aurel\"\" - GreatView","",+49 173 6461698,58 Max-Kaiser-Straße,Schweinfurt,0,50.042460000000000000
171,2,10385407,"\"Penthouse \"\"Michelangelo\"\" GreatView","",+491736461698,58 Max-Kaiser-Straße,Schweinfurt,0,50.042460000000000000
172,2,10831639,"\"Proche GR34 , Studio \"\"Estrella\"\"","",+33623886543,24  rue des sternes,Hillion,0,48.511050000000000000
173,4,10671751,"\"Resort \"\"Lavenders Dream SPA\"\"\"","\"\"\"Kārklēni\"\"",+37128834422,"Inčukalna nov.\"",Krustiņi,0,57.096240000000000000
174,1,10105122,"\"Riumar \"\"Agostino\"\"",private pool,ES,On-Site-Service,"dog beach\"","",23.000000000000000000
175,3,10004733,"\"Riumar \"\"Angeles\"\"",private pool,ES,On-Site-Service,"dog beach\"","",0
176,1,10035964,"\"Riumar \"\"Carmen 1\"\"",private pool,ES,On-Site-Service,"dog beach\"","",11.000000000000000000
177,4,10004738,"\"Riumar \"\"Carmen 3\"\"",private pool,ES,On-Site-Service,"dog beach\"","",0
178,3,10004762,"\"Riumar \"\"Cologne\"\"",private pool,ES,On-Site-Service,"dog beach\"","",0
179,4,10004760,"\"Riumar \"\"El Cazador\"\"",private pool,ES,On-Site-Service,"dog beach\"","",0
180,3,10035959,"\"Riumar \"\"Eva\"\"",private pool,ES,On-Site-Service,"dog beach\"","",0
181,3,10004758,"\"Riumar \"\"Flora\"\"",private pool,ES,On-Site-Service,"dog beach\"","",0
182,2,10004765,"\"Riumar \"\"Four Seasons\"\"",On-Site-Service,40.72643,"dog beach\"","",0,0
183,1,10004757,"\"Riumar \"\"Garbi\"\"",private pool,ES,On-Site-Service,"dog beach\"","",0
184,4,10004756,"\"Riumar \"\"Iris\"\"",private pool,ES,On-Site-Service,"dog beach\"","",0
185,1,10004755,"\"Riumar \"\"Josef\"\"",private pool,ES,On-Site-Service,"dog beach\"","",0
186,2,10004754,"\"Riumar \"\"Juana\"\"",private pool,ES,On-Site-Service,"dog beach\"","",0
187,3,10004752,"\"Riumar \"\"La Tierra Feliz\"\"",private pool,ES,On-Site-Service,"dog beach\"","",0
188,4,10004751,"\"Riumar \"\"Lorenzo\"\"",private pool,ES,On-Site-Service,"dog beach\"","",0
189,2,10035963,"\"Riumar \"\"Los Niños\"\"",private pool,ES,On-Site-Service,"dog beach\"","",0
190,3,10035960,"\"Riumar \"\"Marc\"\"",private pool,ES,On-Site-Service,"dog beach\"","",0
191,4,10004764,"\"Riumar \"\"Maria Luise\"\"",private pool,ES,On-Site-Service,"dog beach\"","",0
192,1,10004750,"\"Riumar \"\"Marianna\"\"",private pool,ES,On-Site-Service,"dog beach\"","",0
193,2,10004749,"\"Riumar \"\"Mariposa\"\"",private pool,ES,On-Site-Service,"dog beach\"","",0
194,4,10004747,"\"Riumar \"\"Migjorn\"\"",private pool,ES,On-Site-Service,"dog beach\"","",0
195,4,10004746,"\"Riumar \"\"Mireli\"\"",private pool,ES,On-Site-Service,"dog beach\"","",0
196,4,10004745,"\"Riumar \"\"Nati\"\"",private pool,ES,On-Site-Service,"dog beach\"","",0
197,3,10004744,"\"Riumar \"\"Noella\"\"",private pool,ES,On-Site-Service,"dog beach\"","",0
198,4,10004743,"\"Riumar \"\"Olivera\"\"",private pool,ES,On-Site-Service,"dog beach\"","",0
199,4,10004742,"\"Riumar \"\"Pedro\"\"",private pool,ES,On-Site-Service,"dog beach\"","",0
200,1,10004741,"\"Riumar \"\"Primavera\"\"",private pool,ES,On-Site-Service,"dog beach\"","",0
201,2,10035966,"\"Riumar \"\"Primera\"\"",private pool,ES,On-Site-Service,"dog beach\"","",25.000000000000000000
202,3,10434497,"\"Rooms Complex \"\"Cristimar\"\"","",+34 697 65 98 42,"Avenida Juan Carlos I, 39 Bloque D-1-3",Los Cristianos - Tenerife,0,28.045930000000000000
203,2,10494499,"\"Résidence \"\"Le Belouga\"\"","",+33630876262,Apparemment 06 rez de chaussée 21 Rue de la Saigne,Mont-Dore,0,45.568740000000000000
204,3,10491273,"\"Résidence \"\"Les cyclistes\"\"","",+32 478 97 72 52,"Appartement F 429, Chemin du pont vieux,",Malaucène,0,44.175530000000000000
205,2,10378140,"\"Statek \"\"Two brooms\"\"","",+420777073001,Chabicovice 1,Chabičovice,0,48.815390000000000000
206,3,10509117,"\"Studio \"\"Brume d'opale\"\" au 2ème étage","",+330770642222,16 Rue Jules Verne,Cayeux-sur-Mer,0,50.184530000000000000
207,2,10509116,"\"Studio \"\"Gris galet\"\" au 2ème étage","",+33770642222,"16, rue Jules Verne",Cayeux-sur-Mer,0,50.184530000000000000
208,3,10508483,"\"Studio \"\"Rêves de gamins\"\" proche du pôle Européen et circuit des 24h","",+33 626805600,35 Chemin de Saint-Mars la Brière,Yvré-lʼÉvêque,0,48.024030000000000000
209,4,10344207,"\"Studio at \"\"The Cliff\"\" complex South Beach Obzor","",+359888592775,"South Beach Obzor Местност Мишелика Gebäude A, 2 Stock, Appartment A2A5",Obzor,0,42.805970000000000000
210,2,10355959,"\"Sítio Zen 37 hectares de flora e fauna preservadas, a 50\"\" da Capital","",+5511999908155,Estrada de Servidão Tapera Grande,Mogi das Cruzes,0,-23.454590000000000000
211,4,8597319,"\"Tante Emma \"\"Paris\"\"",PB-Zentrum,51.71714,"600m zum Hbf\"","",12.000000000000000000,0
212,1,10372168,"\"Unterkunft \"\"Rathaus\"\" Altstadt","",+41 79 923 48 77,Marktgasse 11,Rheinfelden,0,47.555160000000000000
213,4,9203888,"\"Vila Município, \"\"Urban Chic\"\"","",+351966780010,10 Travessa Munícipio,Sintra,0,38.799360000000000000
214,2,10457163,"\"Villa \"\"Alicia\"\" Compostella Beach Resort","",+34 620 42 04 86,"Avenida las Américas Complstella Beach, villa N 8",Los Cristianos - Tenerife,0,28.053980000000000000
215,1,10648153,"\"Villa \"\"Il Grillo\"\" Piscina privata","",+393341337973,Via del Grillo,Corsanico-Bargecchia,0,43.935110000000000000
216,3,11321628,"\"Villa \"\"Sunsland\"\"- Trullo di Due Alloggi da 6 prs","",+39 348 265 3995,contrada Sardella,Latiano,0,40.574960000000000000
217,2,10449141,"\"Villa Luxury \"\"Casa Pato\"\" en Altea","",+34685086395,169 Carrer el Plataner,Alhama Springs,0,38.642470000000000000
218,2,11538732,"\"Villa Pomelia, Stanza \"\"Hiera\"\"","",+393272031950,31 Via Risorgimento,Lingua,0,38.562100000000000000
219,4,11439718,"\"Villetta \"\"Poesia\"\" con giardino","",+393275385080,6 Via Francesco Petrarca Terra,Torre dell'Orso,0,40.281950000000000000
220,2,11505568,"\"atlas golf resort marrakech \"\"duplex à 02 étages","",+212631750378,شارع النخيل Duplex 289,Annakhil,0,31.636020000000000000
221,4,10838673,"\"mobil home \"\"AMBRE\"\" 6p","",+33 6 63276569,31 Route de Frontignan,Vic-la-Gardiole,0,43.491790000000000000
222,1,10342306,"\"Апартамент \"\"Алеко\"\" в центъра на града\"","\"ул. \"\"Алеко Константинов\"\" 21",27.90556,ет.2,"ап.4\"",0,0
223,2,10345572,"\"Апартамент \"\"Амира\"\"\"","\"ул. \"\"Черно Море\"\" 32 ет.3",+359 89 3347357,"ап. 10\"",Balchik,0,43.408870000000000000
224,1,11392608,"\"Къща за гости \"\"ЗОЯ\"\"\"","\"ул. \"\"Капитан Петко Войвода\"\" 4",+359887111310,"кв. Василико\"",Tsarevo,0,42.161360000000000000
225,3,11356744,"\"Къща за гости \"\"Пердика\"\"\"","\"Ул.\"\" Славянска\"\" 81",+359 88 724 7162,"Обзор\"",Obzor,0,42.821440000000000000
226,3,11301073,"\"Мотел \"\"Релакс\"\" Motel \"\"Relax\"\"","\",,\"Ул. Първа",+3590896723912,"2а\"",Balchik,0,43.410570000000000000
227,1,10344812,"\"к-кс \"\"Солита\"\"","",+359878747596,улица „Брегова“N:52,Byala,0,42.874360000000000000
228,2,10344811,"\"к-кс \"\"Сънрайз\"\"","",+359 87 874 7596,"\"улица „Подводничари“ет.4 ап 17 , к-кс \"\"Сънрайз\"\"\"",Byala,0,42.876210000000000000
229,1,10266848,#24 Laguna Bel Air,"","","","","",""
230,4,8930706,'Ow Do - UK11446,Dringhoe Hall,"","","","",""
231,4,84560653,*** New Southside Upscale Condo ** Block Off Market & Main ** Work Where You Play ** Cha Crossroads,yI3pTR9MQI5oi2hbbDqq3C,37408,Chattanooga,United States,35.035247000000000000,-85.309235000000000000
232,2,11580514,*Cutest Little House in Texas!*,2210 Bristol Drive,TX 78723,Austin,US,30.314080000000000000,-97.682390000000000000
233,3,11306170,*New* Hartest Vineyard 2 bed cottage with parking,"Giffords Hall Vineyard, Hartest",IP29 4EX,Hartest,GB,52.130480000000000000,0.693240000000000000
234,1,10308752,"-HOT TUB- Entire 10 bed East Lothian luxury retreat, garden hot tub, sleeps 22","2, 2a & 2b Ravensheugh Road","","","","",""
235,4,84082795,01 Bed Modern Serviced Apartment In Canary Wharf,G6Y3jtuYRYweYKYk13fLntyyuaj7hpo3862k,E14 9DP,London,United Kingdom,51.497721000000000000,-0.019528000000000000
236,3,8376770,1 Barnagh Barn,Rhencullen,"","","","",""
237,4,7199864,1 Bedroom - UK2633,Mowbray,"","","","",""
238,4,7208724,1 Harbour View,Apartment 1,"","","","",""
239,2,11449761,1 Merope,St. Merryn Park,"","","","",""
240,4,8663904,1 Primrose Cottage,1 Primrose Cottages,"","","","",""
241,3,11455778,1 Severn Bank,1 Severn Bank,"","","","",""
242,2,10467375,1 Trova-Ranocchietto,"\"1 Ranocchietto - \"\"Suprani Minucchi\"\"","",",Alata,FR,41.97126,8.76429,+33688173016,20167,Apartments","","",""
243,2,7789866,1. Alpin Penzion,"Velehradská 25 13000 Prague Prague Czech Republic, Prague",13000,Prague,Czech Republic,50.080329000000000000,14.452963000000000000
244,1,10984147,10 Ocean Glade - UK37734,2 Ocean Glade,"","","","",""
245,2,6574112,1010 Sea View Apartment,"Floor 26 Haichenge Bihailantian Estate Sanyawan Road, Sanya",570000,Sanya,China,18.266975000000000000,109.487064000000000000
246,3,7208690,11 Belvedere Court,11 Belvedere Court,"","","","",""
247,3,5230473,11 The Plosh,11 The Plosh,"","","","",""
248,2,6770175,1115 Lowell Avenue,"1115 Lowell Avenue, Alta",84060,Alta,United States Of America,40.646575000000000000,-111.501565000000000000
249,4,9999775,117 Atlantic Reach-UK32918,117 Atlantic Reach,"","","","",""
250,2,8092493,12 White Star Motel,"12 White Street, Timaru",7910,Timaru,New Zealand,-44.386519000000000000,171.237701000000000000
251,2,7546867,13 Coins Antique Villa,"Surawongse Road Bangrak 304, Bangkok",10500,Bangkok,Thailand,13.727154000000000000,100.520392000000000000
252,2,7758568,15 Merchiston Gardens,"15 Merchiston Gardens, Edinburgh",EH10 5DD,Edinburgh,United Kingdom,55.929390000000000000,-3.221760000000000000
253,3,7208693,16 Belvedere Court,Apartment 16,"","","","",""
254,3,8418900,16 Marinus,16 Marinus,"","","","",""
255,4,10248811,17 Mill Lane,17 Mill Lane,"","","","",""
256,2,8606707,1890 Hotel Boutique,"Salta 1074, Buenos Aires",C1074AAV,Buenos Aires,Argentina,-34.620650000000000000,-58.382960000000000000
257,4,59925417,1934 Soda Springs 3 Bedroom Condo,2027 Soda Ridge Rd  1934,80435,Keystone,United States,39.602581000000000000,-105.973095000000000000
258,2,7498565,1st Apartments And Hostel,"Sip Utca 5 / Ring 23, Budapest","",Budapest,Hungary,47.495893000000000000,19.062620000000000000
259,2,8435770,1st Apartments And Hostel,"Sip Utca 5 / Ring 23, Budapest",1075,Budapest,Hungary,47.495893000000000000,19.062620000000000000
260,2,8454019,1st Hostel,"Sip Utca 5, Budapest",1075,Budapest,Hungary,47.495650000000000000,19.062600000000000000
261,3,7199865,2 Bedroom - UK2634,Mowbray,"","","","",""
262,2,6755195,2 Greta Side Court,2 Greta Side Court,"","","","",""
263,2,7587151,2 Park Lane,"2 Park Lane, Salisbury",SP1 3NP,Salisbury,United Kingdom,51.083331000000000000,-1.797777000000000000
264,3,11455869,2 Rectory Lodge - UK39639,Heyope Rectory,"","","","",""
265,4,10344296,2 Room Family Apartment with Garden View (2 min. away from the Sea),"\"ulitsa \"\"Kiparis\"\" Apollon 2",27.69034,Floor 1,"Apt. 1\"",0,0
266,2,11059266,2 Seed Howe,2 Seed Howe Cottages,"","","","",""
267,2,8449990,2 The Crofts,"Newcastle Road, Corbridge",NE45 5LW,Corbridge,United Kingdom,54.971540000000000000,-1.997670000000000000
268,2,8280090,2 West Cottage,Dean Court,"","","","",""
269,2,8486685,2-room Apartment Emdener Strasse,"Emdener Str. 8, Berlin","",Berlin,Germany,52.528400000000000000,13.333640000000000000
270,1,9779672,21 Chalet Road UK31733,20-23 Chalet Road,"","","","",""
271,2,10033212,22 Nicol,22 Nicol Street,"","","","",""
272,2,6585156,222 Willis,"222 Willis Student Accommodation Private Bag 63006, Trentham",6011,Trentham,New Zealand,-41.293430000000000000,174.772070000000000000
273,2,7743460,238 Madison Ave Apartment,"238 Madison Ave, New York",10016,New York,United States Of America,40.749870000000000000,-73.981500000000000000
274,2,8488893,24 Hour City Hotel Hefei,"Furong West Road 303, Hefei",230601,Hefei,China,31.788760000000000000,117.217590000000000000
275,2,8694281,24 Tomorrow Hotel,"No.100 Liwan Road, Guangzhou",510170,Guangzhou,China,23.131056000000000000,113.244720000000000000
276,2,7839667,24seven,"15 Acramans Road, Bristol, Uk, Bristol",BS3 1DQ,Bristol,United Kingdom,51.444538000000000000,-2.599205000000000000
277,2,10113016,26 on Agnes,26 Agnes Avenue,"","","","",""
278,2,6678804,28 Floor L.mark Youth Hostel,"Lijing Mansion, No. 1008 Middle Hongling Road, Shenzhen",518000,Shenzhen,China,22.545010000000000000,114.105205000000000000
279,2,10124578,29 Atlantic Reach,Whitecross,"","","","",""
280,2,8488758,2night Hostel,"22. Szt. Istvan Krt., Budapest",1137,Budapest,Hungary,47.511530000000000000,19.053080000000000000
281,2,7040383,2residence,"5871, Olympicro, Songpagu, Seoul",05520,Seoul,South Korea,37.534230000000000000,127.121760000000000000
282,2,6484555,3 Bedroom Apartment In Westminster,"88 Warwick Way, London","",London,United Kingdom,51.491372000000000000,-0.142739000000000000
283,2,8139314,3 Bees Resort,"700 Moo3 T.aonang Muang Krabi ,krabi 81000, Krabi",81000,Krabi,Thailand,8.042180000000000000,98.839020000000000000
284,3,9157142,3 Old Posting Stables,3 Posting Stables,"","","","",""
285,2,8408088,3 Winville Mews,3 Winville Mews,"","","","",""
286,2,8055361,33 South Backpackers,"48 Trill Road Observatory, Cape Town",7925,Cape Town,South Africa,-33.939000000000000000,18.470000000000000000
287,3,8234705,33 South Backpackers,"48 Trill Road, Observatory",7925,Rosebank,Za,-33.939001000000000000,18.470002000000000000
288,2,7613904,3b Inn,"No.78 Qinghe Road Jiangbei District Ningbo Zhejiang Province 0, Ningbo",315020,Ningbo,China,29.890816000000000000,121.556346000000000000
289,2,8656947,3rd Coast Inn,"718 S. Station, Ingleside",78373,Ingleside,United States Of America,27.826050000000000000,-97.065000000000000000
290,1,11509114,4 Bedroom Cottage with panoramic Harbour views,2 Geachs Cottages,TR11 2UG,Falmouth,GB,"",""
291,3,7208688,4 Belvedere Court,4 Belvedere Court,"","","","",""
292,4,10051004,4 Dolphins,Old Shore Road,"","","","",""
293,4,39802161,46 Harrington Gardens,46 Harrington Gardens,SW7 4LT,London,United Kingdom,51.492556000000000000,-0.186889000000000000
294,2,7683122,48 Grovenor Bb,"48 Grovenor Drive Orewa 0931 Auckland, North Auckland",0931,North Auckland,New Zealand,-36.583880000000000000,174.680840000000000000
295,2,9843982,5 Church Square,5 Church Square,"","","","",""
296,2,7208590,5 Devon Beach Court,5 Devon Beach Court,"","","","",""
297,2,8487701,5 Islas,"Calle San Cristobal 38 S'arenal, Playa De Palma",07600,Playa De Palma,Spain,39.502420000000000000,2.754230000000000000
298,1,7021346,50 Degrees West,The Rocks,"","","","",""
299,2,7208725,6 Harbour View,6 Harbour View,"","","","",""
300,4,8635904,6 Harney Peak,6 Harney Peak,"","","","",""
301,2,8777643,66 On Monzali,66 Monzali Drive,"","","","",""
302,2,7789140,7 Century House,"270 Ratchaphakinai Road, Sripoom, A.muang, Chiang Mai",50200,Chiang Mai,Thailand,18.794800000000000000,98.990250000000000000
303,2,8669922,7 Days Inn Beijing West Railway Station North Square Branch,"No 126 Lianhuachi East Road, Beijing",100038,Beijing,China,39.902320000000000000,116.322880000000000000
304,3,8854158,7 Days Inn Beijing West Railway Station North Square Branch,No 126 Lianhuachi East Road,100038,Yuegezhuang,Cn,39.902320861816406000,116.322883605957030000
305,2,8543142,7 Days Inn Chengdu Centre Of Chunxi Pedestrian Street Branch,"No.73 Chengshou Street Chunxi Road, Chengdu",610021,Chengdu,China,30.654780000000000000,104.077690000000000000
306,2,8547771,7 Days Inn Chengdu Wuhouci Huaxi Hospital Branch,"No. 24 Jiang XI Street, Wuhou District, Chengdu",610041,Chengdu,China,30.645540000000000000,104.059910000000000000
307,2,8604730,7 Days Inn Guangda,"Guanshengyuan Road ,231, Shanghai",200235,Shanghai,China,31.162520000000000000,121.427100000000000000
308,2,8539480,7 Days Inn Shanghai North Bund Transportation Center Branch,"No. 145 Tangshan Road, Shanghai",200080,Shanghai,China,31.252780000000000000,121.499040000000000000
309,2,8463088,7 Flags International,"181184, Basera, Shaheed Bhagatsingh Road,new Andheri  Ghatkopar Link Road ,andheri e, Mumbai",400059,Mumbai,India,19.112080000000000000,72.865770000000000000
310,1,7208701,7 Roundham Heights,7 Roundham Heights,"","","","",""
311,2,7766052,76 Inn,"2330 West 76 Country Boulevard, Branson",65616,Branson,United States Of America,36.641164000000000000,-93.263505000000000000
312,2,7993372,7777 Hotel,"Besim Alla Street, 6, Tirana",1001,Tirana,Albania,41.320994000000000000,19.774191000000000000
313,2,6319614,7days Inn Chengdu Chunxi Road Pedestrian Street Center,"5f No.73 Chengshou Street, Chunxi Road, Chengdu",610000,Chengdu,China,30.654889000000000000,104.077845000000000000
314,2,6383407,7days Inn Shanghai North Bund International Coach Metro Station,"No.145 Tangshan Road xinjian Road Tunnel Exit, Hongkou District, Shanghai",200080,Shanghai,China,31.252524000000000000,121.499096000000000000
315,2,8659790,7th Floor,"Prospekt Vernadskogo 88/1 Moscow, Moscow","",Moscow,Russia,55.660000000000000000,37.480000000000000000
316,3,7208689,8 Belvedere Court,Apartment 8,"","","","",""
317,2,8454449,8090 City Hotel - Xiamen,"No. 458 Huizhan Road, Siming District, Xiamen",361008,Xiamen,China,24.486790000000000000,118.188380000000000000
318,1,8885475,@thome,Gembong 36 M street,"","","","",""
319,2,8479067,A Bed & Breakfast In Cambridge,"1657 Cambridge St, Cambridge",02138,Cambridge,United States Of America,42.374970000000000000,-71.110410000000000000
320,2,8641743,A Ca' DI Lanteri,"Via Armea 6, Sanremo","",Sanremo,Italy,43.820130000000000000,7.835310000000000000
321,1,91167304,A Cabin In The Woods,3416 Householder Street,TN 37863,Pigeon Forge,United States,35.789697500000000000,-83.547938300000000000
322,3,4843003,A Cabin In The Woods,3416 Householder Street,TN 37863,Pigeon Forge,Us,35.789700000000000000,-83.547940000000000000
323,2,7842733,A Casa DI Amelì,"Via Delle Ville,6 Localita Colle Afri, Gallicano Nel Lazio",00010,Gallicano Nel Lazio,Italy,41.872654000000000000,12.809212000000000000
324,2,8505355,A Casa DI Franci,"Various Addresses, Parma",43121,Parma,Italy,44.793810000000000000,10.351270000000000000
325,2,8490063,A Casa DI Sandra,"Via Don Orione 15, Mirano",30035,Mirano,Italy,45.491380000000000000,12.071720000000000000
326,3,4095833,A Casa DI Sandra,Via Don Orione 15,30035,Mirano,It,45.491381000000000000,12.071722000000000000
327,2,7727985,A Casa Do Pablo Pousada,"Estrada Canto Esquerdo De Geriba 68 Geriba, Armacao Dos Buzios",28950000,Armacao Dos Buzios,Brazil,-22.774360000000000000,-41.901100000000000000
328,2,8633727,A Downtown Victoria Ocean View Bed And Breakfast,"715 Suffolk Street, Bamberton","",Bamberton,Canada,48.431830000000000000,-123.391850000000000000
329,2,7762274,A Family And Friends Guest House,"22 Marathon Rd, Durban",4052,Durban,South Africa,-29.918240000000000000,31.005450000000000000
330,2,8583002,A Great Escape Guest House,"6 Argyle Road, Swanage",BH19 1HZ,Swanage,United Kingdom,50.609110000000000000,-1.965370000000000000
331,2,8634179,A Hotel By Horison,"Jl. Lambung Mangkurat Banjarmasin Indonesia Banjarmasin, Banjarmasin",0000,Banjarmasin,Indonesia,-3.324255000000000000,114.591455000000000000
332,2,8651778,A J Golden Crescent,"Near Golden Temple,, 19 Brahmbutta Market, Amritsar, In, Amritsar",143006,Amritsar,India,31.619912000000000000,74.879422000000000000
333,4,10739665,A Pausa,"\"Quinta \"\"A Pausa\"\"",+351 919 853 099,"Estrada de Alvor\"",Amoreira,0,37.131410000000000000
334,2,8553174,A Room For U,"62 Northern Highway, Echuca",3564,Echuca,Australia,-36.146100000000000000,144.730280000000000000
335,2,8583997,A Room With A View Bed & Breakfast,"39 Cook Street, Firefly",2422,Firefly,Australia,-32.003750000000000000,151.966200000000000000
336,2,8437135,A Testaccio Da Max,"Via Orazio Antinori 7, Rome",00153,Rome,Italy,41.880370000000000000,12.472710000000000000
337,2,8645061,A Travellers Rest Stop,"5 Teck Lim Road, Singapore",424780,Singapore,Singapore,1.280187000000000000,103.841754000000000000
338,2,8598717,A&o Hostel Berlin Am Zoo,"Joachimstaler Strasse 13, Berlin",10623,Berlin,Germany,52.506100000000000000,13.332100000000000000
339,2,7681481,A1 Southside Lodge,"Great North Road A1 South Bound Wentbridge, Pontefract",WF8 3JF,Pontefract,United Kingdom,53.626680000000000000,-1.238230000000000000
340,2,6317152,A338 Plantage Muidergracht Apartment,"Plantage Muidergracht, Amsterdam",1018 TW,Amsterdam,Netherlands,52.363559000000000000,4.916701000000000000
341,1,11504926,ADIRA Résid'Marseille Vieux-port,6 Rue du Jeune Anacharsis,13001,Marseille,FR,"",""
342,2,11418689,"ALL INCLUDED BEAUTIFUL AND PRIVATE APARTMENT ONLY 200 METERS TO BEST CLEOPATRA BEACH 1 with umbrellas, barbecue, balcony, 35 or upgrade to 75 mpbs fastest wifi of Alanya, smart TV, table games etc","Çarşı, Sultan Alaaddin Caddesi n 24",07400,batam,TR,36.542210000000000000,31.989260000000000000
343,1,10346163,ALLURE VARNA studios,"\"ул.\"\"46-та\"\" номер 10",+359887774671,"ап.А19 и ап.А20\"",Saints Constantine and Helena,0,43.226310000000000000
344,1,10874521,APARTAMENTOS JUCAR,"C/ Tigaday,30",38911,"Tigaday,TENERIFE",ES,"",""
345,4,8986382,APOGIA PARIS,14 BOULEVARD PAUL VAILLANT COUTURIER,"",IVRY SUR SEINE,FR,"",""
346,2,9186175,APTOS EL MOLIN DE PETRA,"LA ROZA S/N,","",VILLAVICIOSA,ES,"",""
347,2,11033080,APTOS GEMELOS 1 - ALOTURIN,AVENIDA DE MADRID. 6,"",BENIDORM,ES,"",""
348,3,9186125,APTOS VIDA FINISTERRE,"ALDEA SAN MARTÍN DE ABAJO, S/N","",FINISTERRE,ES,"",""
349,4,9186174,APTOS. LA CASONA DE LA ROZA,"LAS ROZAS, S/N","",VILLAVICIOSA,ES,"",""
350,3,9153870,AS11677 - Marina de type p3 avec parking privé et appontement,"\"Résidence \"\"Les Marines de la plage\"\"",+33 4 66 73 32 98,"Appt N°12\"",Port-Camargue,0,43.514300000000000000
351,2,10495018,"AS13357 - P3 face à la plage sans route à traverser, proche centre ville avec parking privé","\"Résidence \"\"Le Frédéric Mistral\"\"",+33 4 66 73 32 98,"Appt N°74\"",Le Grau-du-Roi,0,43.530760000000000000
352,1,9181806,AS13768 - P2 double cabine avec terrasse d'angle vue mer et garage privé,"\"Résidence \"\"Le Grand Large\"\"",+33 4 66 73 32 98,"Appt N°226\"",Port-Camargue,0,43.512430000000000000
353,1,9155080,"AS14629 - P2 Mezzanine avec vue mer latérale, dans une résidence sur plage avec parking privé","\"Résidence \"\"Le Château Leenhardt\"\"",+33 4 66 73 32 98,"Appt N°A404\"",Le Grau-du-Roi,0,43.539990000000000000
354,2,10871253,AS17117 - P2 avec piscine et magnifique vue Port,"\"Résidence \"\"Les Jardins du Port\"\"",+33 4 66 73 32 98,"Appt N°2054\"",Port-Camargue,0,43.521630000000000000
355,4,10495019,AS17563 - P2 Entiérement équipée accés mer direct avec parking privé,"\"Résidence \"\"Le Château Leenhardt\"\"",+33 4 66 73 32 98,"Appt N°A008\"",Le Grau-du-Roi,0,43.539990000000000000
356,1,9099650,AS18262 - Studio en Centre Ville,"\"Résidence \"\"Le Saint Pierre\"\"",+33 4 66 73 32 98,"Appt N°5\"",Le Grau-du-Roi,0,43.537960000000000000
357,1,10495020,"AS18656 - Grand studio vue mer, direct sur plage avec parking privé","\"Résidence \"\"Le Château Leenhardt\"\"",+33 4 66 73 32 98,"Appt N°A227\"",Le Grau-du-Roi,0,43.539990000000000000
358,1,10913003,AS19944- P2 Cabine avec belle vue sur la Mer et parking privé,"\"Résidence \"\"Le Grand Large\"\"",+33466733298,"Appt N°266\"",Port-Camargue,0,43.512430000000000000
359,3,10871254,AS20085 - Studio spacieux avec piscine et parking commun,"\"Résidence \"\"Escale Port\"\"",+33466733298,"N°1008\"",Port-Camargue,0,43.520880000000000000
360,2,10495049,AS20235 - Studio mezzanine au Centre Ville,"\"Résidence \"\"Le Saint Pierre\"\"",+33466733298,"Appt n°32\"",Le Grau-du-Roi,0,43.537960000000000000
361,2,10913034,AS21387 - Studio grande cabine avec parking privé à 200m de la plage,"\"Résidence \"\"LA CROISIERE\"\"",+33466733298,"Appt N°40\"",Port-Camargue,0,43.512490000000000000
362,2,10965125,AS21491 - P3 Cabine en bord de mer avec vue mer latérale,"\"Résidence \"\"Les villégiales du Château\"\"",+33466733298,"Appt N°A004\"",Le Grau-du-Roi,0,43.539500000000000000
363,3,10913045,AS21537 - P2 vue port avec parking privé,"\"Résidence \"\"Le Santa Maria\"\"",+33466733298,"Appt N°396\"",Port-Camargue,0,43.511620000000000000
364,4,10965126,AS21543 - P2 double cabine avec double terrasse vue mer et parking privé,"\"Résidence \"\"Le Grand Large\"\"",+33466733298,"Appt N°407\"",Port-Camargue,0,43.512430000000000000
365,4,10948927,AS21600 - P2 Cabine à 200m de la plage avec parking privatif,"\"Résidence \"\"Los Amigos I\"\"",+33466733298,"Appt n°114\"",Port-Camargue,0,43.527000000000000000
366,3,9159119,AS4269 - Studio cabine direct sur plage vue mer et parking privé et numéroté,"\"Résidence \"\"Le Grand Large\"\"",+33 4 66 73 32 98,"N°336\"",Port-Camargue,0,43.512430000000000000
367,1,9184046,AS5982 - P2 avec garage privé à 2 pas de la plage,"\"Résidence \"\"Le Saint Pierre\"\"",+33 4 66 73 32 98,"Appt N°45\"",Le Grau-du-Roi,0,43.537960000000000000
368,2,8983875,"AS8313 - P2 cabine avec parking privé, accès direct à la plage","\"Résidence \"\"Le Grand Large\"\"",+33 4 66 73 32 98,"Appt N°190\"",Port-Camargue,0,43.512300000000000000
369,1,9184044,"AS8314 - P2 Cabine dans une résidence avec piscine, parking privé et belle vue chenal","\"Résidence \"\"Les Rives du Lac\"\"",+33 4 66 73 32 98,"Appt N°9\"",Port-Camargue,0,43.517120000000000000
370,1,10495016,AS9557 - Studio vue sur la mer avec parking privé proche centre ville,"\"Résidence \"\"Le St Louis\"\"",+33 4 66 73 32 98,"Appt N°50\"",Port-Camargue,0,43.521000000000000000
371,2,9204776,AS9836 - P2 dans une résidence sur la plage avec belle vue sur le chenal et parking privé,"\"Résidence \"\" La Lagune\"\"",+33 4 66 73 32 98,"Appt N°394\"",Port-Camargue,0,43.511250000000000000
372,1,9186300,ATLANTIDA BY GARVETUR,"URB. ATLANTIDA I, AVDA INFANTE SAGRES LOJA 2 -EDIF. FLORES","",QUARTEIRA,PT,"",""
373,4,11341260,AUTO KAMP PUNTA POVILE,"\"AUTO KAMP \"\"PUNTA POVILE\"\" POVILE",+385915086649,"NOVI VINODOLSKI\"",Povile,0,45.115630000000000000
374,1,11513005,AZZ CONVENTO LAS CLARAS HOTEL AND SPA,"PLAZA ADOLFO MUÑOZ ALONSO, S.N","",PEÑAFIEL,ES,"",""
375,2,8520914,Aaa Suites By Aaa Homes,"Building 469, Road 2407 Al Fateh 324, Juffair, Manama","",Manama,Bahrain,26.205200000000000000,50.601070000000000000
376,3,8255729,Aaa Suites By Aaa Homes,"Building 469, Road 2407, Al Fateh 324, Juffair","",Juffair,Bh,26.205202000000000000,50.601074000000000000
377,2,6298342,Aakriti Guest House,"133/1,second Ward Salcete, Near Colva Church, Goa",403708,Goa,India,15.277700000000000000,73.920920000000000000
378,2,7653088,Aali Hotel Apartments,"Al Khubar  Al Aqarabya , Prince Hamoud Street, Al Khobar","",Al Khobar,Saudi Arabia,26.287117000000000000,50.198134000000000000
379,2,8465656,Aali Hotel Apartments,"Al Khubar  Al Aqarabya , Prince Hamoud Street, Al Khobar",31952,Al Khobar,Saudi Arabia,26.287117000000000000,50.198134000000000000
380,2,7374170,Aaron Guest House,"42 Bootham Crescent, York",YO30 7AH,York,United Kingdom,53.967300000000000000,-1.088727000000000000
381,2,8546381,Aastha Regency Hotel,"Nagar Road Distt. Kullu, Manali","",Manali,India,32.239630000000000000,77.188720000000000000
382,2,7600565,Abant,"Robert Schumann.str. 2, Obertshausen",63179,Obertshausen,Germany,50.069163000000000000,8.841285000000000000
383,2,8614962,Abbatiale Hotel,"8 Boulevard Gambetta, 38160, Saintmarcellin",38160,Saintmarcellin,France,45.153110000000000000,5.322090000000000000
384,2,7587601,Abbingdon Guest House,"60 Bootham Crescent, York",YO30 7AH,York,United Kingdom,53.968004000000000000,-1.087775000000000000
385,4,7014004,Abbotts Close Cottage,Abbotts Close Farm,"","","","",""
386,2,8351937,Abc Accommodation Preston,"Ivy Street, Preston",3073,Preston,Australia,-37.746443000000000000,144.988831000000000000
387,3,9380132,Abella Hotel,Agia Marina,73100,Agia Marina Nea Kydonias,Gr,35.519310000000000000,23.931300000000000000
388,2,7829545,Abineau Lodge Bed And Breakfast,"1080 Mountainaire Rd, Bellemont","",Bellemont,United States Of America,35.088660000000000000,-111.667870000000000000
389,2,7534407,Abington Hotel,"78 Carlisle Road Abington, Biggar",ML12 6SD,Biggar,United Kingdom,55.493530000000000000,-3.692280000000000000
390,2,7587587,Abonny Guest House,"Academy St, Stranraer",DG9 7DR,Stranraer,United Kingdom,54.900841000000000000,-5.023906000000000000
391,3,3044600,Abou Nawas Bou Jaafar,Avenue Habib Bourguiba,4000,Sousse,Tn,35.832636266380200000,10.641117095947300000
392,4,36152668,Abou Nawas Bou Jaafar,Avenue Habib Bourguiba,4000,Sousse,Tunisia,35.832638000000000000,10.641117000000000000
393,1,43786205,Absyntapart Krawiecka - Just In Center,Krawiecka 1,50-148,Wroclaw Breslau,Poland,51.111591780000000000,17.026043230000000000
394,2,7702766,Absyntapart Old Town,"Ul. Św. Antoniego 15 reception, Wroclaw","",Wroclaw,Poland,51.109284000000000000,17.025202000000000000
395,2,7836723,Acacia Boutique Hotel,"Marathon Terrace Queen's Promenade, Douglas",IM2 4NH,Douglas,United Kingdom,54.164350000000000000,-4.468130000000000000
396,2,7495527,Academia,"Pfeilgasse 3a A 1080 Vienna Austria, Vienna",0,Vienna,Austria,48.208017000000000000,16.348786000000000000
397,2,9143337,Acarsaid Cottage,33 Church Street,"","","","",""
398,2,7499489,Acarte Weimar,"Marcel Paul Strasse 48 D, Weimar",99427,Weimar,Germany,50.994146000000000000,11.317152000000000000
399,2,7387732,Accademia Apartments,"Langensteinenstrasse 2, Zurich",8057,Zurich,Switzerland,47.395798000000000000,8.545641000000000000
400,2,8496056,Accommodation Verdetecnica,"Via Monte Kronio 22, Sciacca",92019,Sciacca,Italy,37.526150000000000000,13.097510000000000000
401,2,8486699,Accomodation @ Chicken Shack Lodge,"41 Old Mission Road, Durban",4052,Durban,South Africa,-29.919490000000000000,31.002880000000000000
402,2,7056523,Ace Motel,"6249, Yonghyeon 5dong, Namgu, Incheon",22186,Incheon,South Korea,37.456245000000000000,126.636272000000000000
403,2,7942447,Aceh House Hotel Islami Wahid Hasyim,"Jalan Kh Wahid Hasyim No.39 20158 Medan, Medan",20158,Medan,Indonesia,3.585276000000000000,98.675514000000000000
404,2,8523010,Acg Hotel Shangpin,"No 66 Zhongji Bay Dongxin Road, Hangzhou",310000,Hangzhou,China,30.283340000000000000,120.177420000000000000
405,2,7682730,Acg Life Theme Hotel Daguanqianjiang Market Branch,"76 Da Guan Yuan Road Gong Shu District, Hangzhou",310000,Hangzhou,China,30.309500000000000000,120.156000000000000000
406,2,8449314,Ack Cyber Hotel Shajing,"South Ring Rd Shajing Town Baoan District, Shenzhen",518000,Shenzhen,China,22.721840000000000000,113.774710000000000000
407,2,7767517,Ackergill Tower,"Ackergill Tower, Wick",KW1 4RG,Wick,United Kingdom,58.475250000000000000,-3.111380000000000000
408,2,7828092,Acme Hostel,"11 Sadovaya Street, Saint Petersburg",191011,Saint Petersburg,Russia,59.935350000000000000,30.335240000000000000
409,2,7689932,Acme Hotel,"199 Chengfei Avenue, Chengdu",610091,Chengdu,China,30.684620000000000000,103.960068000000000000
410,2,7787594,Aconchego Lusitano Pousada,"R. Formosa 75 Centro, Porto Seguro",45810 000,Porto Seguro,Brazil,-16.444040000000000000,-39.068796000000000000
411,1,5221463,Acorns,Dolphin,"","","","",""
412,1,8491465,Acres View,27 Main Street,"","","","",""
413,2,7699778,Ada Apart Bakirkoy Vip,"Istanbul Cad. No:39 Bakirkoy, Istanbul",34140,Istanbul,Turkey,40.978584000000000000,28.877753000000000000
414,2,7842879,Adagio On Pluschikha,"31 Pluschikha Str. Moscow Russia, Moscow",119121,Moscow,Russia,55.741905000000000000,37.577766000000000000
415,2,7499893,Adagio Rome Dehon,"Via Leone Dehon 61/63, Rome",00165,Rome,Italy,41.891261000000000000,12.436639000000000000
416,2,8608524,Adam & Eve Hotel,"112210 Sangdong 40 Tongildaero, Mokpo","",Mokpo,South Korea,34.798420000000000000,126.429460000000000000
417,3,7723248,Adam & Eve Hotel,112210 Sangdong 40 Tongildaero,"",Yongdang,Kr,34.798423767089844000,126.429458618164060000
418,2,7801372,Adam Plaza Hotel Apartments,"Al Sahib Bin Abbad St Near Petrol Station And C Ring Road Najma Area, Doha","",Doha,Qatar,25.266310000000000000,51.546840000000000000
419,2,8521280,Adam Plaza Hotel Apartments,"Al Sahib Bin Abbad St, Near Doha Petrol Station And Cring Road, Najma Area, Doha","",Doha,Qatar,25.266310000000000000,51.546840000000000000
420,2,7803170,Adamkova Vila,"Ratkovice 28, Frydekmistek",739 0,Frydekmistek,Czech Republic,49.622333000000000000,18.467273000000000000
421,2,8140360,Adamo Hotel Apartments,"Al Barsha 1, Dubai","",Dubai,United Arab Emirates,25.111635000000000000,55.205323000000000000
422,2,8441132,Adamo Hotel Apartments,"Al Barsha First, Al Suhool, Dubai",392261,Dubai,United Arab Emirates,25.111375000000000000,55.205355000000000000
423,2,8783967,Adamsons Barn,Adamsons Barn,"","","","",""
424,2,8065923,Adelia Hotel,"Jl. Pemuda III No.21, Denpasar",80228,Denpasar,Indonesia,-8.675020000000000000,115.240580000000000000
425,4,9589934,Adequalogis - Studio Domotique et Ergonomie,"Villa Olza,","","","","",""
426,2,11339733,Aditya - 23rd Feb 2017,TEST,577548,TEST,US,"",""
427,2,7601184,Adjev Han Hotel Sandanski,"51 Stefan Stambolov Str., Sandanski",2800,Sandanski,Bulgaria,41.548492000000000000,23.275239000000000000
428,2,7400626,Adlerhorst Zillertal,"Gattererberg 18, Finkenberg",6276,Finkenberg,Austria,47.303698000000000000,11.901557000000000000
429,2,7780447,Adonis House Taksim,"Feridiye Caddesi Çaylak Sokak 54, Istanbul",34437,Istanbul,Turkey,41.040087000000000000,28.981853000000000000
430,2,8595932,Adosados Alcocebre Suit 3000,"Cami Zapata,1, Castello",12579,Castello,Spain,40.229055000000000000,0.266909000000000000
431,2,8681194,Aek Pailin River Kwai,"245 Moo4. Ladyaarawan Rdwangdong, Muang, Kanchanaburi",71190,Kanchanaburi,Thailand,14.133543000000000000,99.353396000000000000
432,1,59045503,Aelia Apartments,Chora Naxos Saint George's Beach,84300,Naxos Chora,Greece,37.101050240000000000,25.374021830000000000
433,3,4215528,Aelia Apartments,Chora Naxos Saint George's Beach,84300,Naxos Chora,Gr,37.101050000000000000,25.374020000000000000
434,2,7758685,Aelpili Landhotel,"Hnr. 88, Gaschurn",6793,Gaschurn,Austria,46.983590000000000000,10.025427000000000000
435,2,7826466,Affittacamere New York,"Via Carlo Cattaneo 31, Rome",00185,Rome,Italy,41.898663000000000000,12.502495000000000000
436,3,10128188,African Ambience,124 Pelican Street,"","","","",""
437,2,7488657,African Meistereck.com,"Comeniusstrabe 1 90459 Nurnberg Germany, Suedstadt",90459,Suedstadt,Germany,49.443327000000000000,11.082273000000000000
438,2,8621308,African Sky,"Harrenstaetter Strasse 64 66, Friesoythe",49757,Friesoythe,Germany,52.857900000000000000,7.662500000000000000
439,2,7793919,Agia Maria Inn & Resort,"1613 Hunter Creek Road, Carnarvon",K0M 2K0,Carnarvon,Canada,44.903040000000000000,-78.749940000000000000
440,2,8451376,Agile Hotel Foshan,"Suiyan Road Huadiwan Side, Nanhai District, Foshan",528247,Foshan,China,23.096790000000000000,113.199990000000000000
441,3,8798103,Agoda Test Hotel 123456 - DO NOT BOOK,Test Address Do Not Book,"",Moroni,KM,-11.597698255142900000,43.029842292890000000
442,2,7628489,Agora Hotel,"No.106 110 Jalan Bukit Bintang, Kuala Lumpur",55100,Kuala Lumpur,Malaysia,3.146395000000000000,101.710705000000000000
443,2,8642723,Agra Mahal,"50c 39/158159, Old Idgah Colony, Near Idghah Bus Stand, Agra, In, Agra",282001,Agra,India,27.167070000000000000,77.995250000000000000
444,2,7594936,Agritur Eden Marone,"Via Marone 11, Riva Del Garda",38066,Riva Del Garda,Italy,45.899029000000000000,10.836768000000000000
445,2,8580081,Agriturismo Acquechete,"Strada Provinciale Delle Colline 6, Palaia",56036,Palaia,Italy,43.602570000000000000,10.760100000000000000
446,2,8572489,Agriturismo Colle Doro,"C Da S Oliva Licata, Licata",92027,Licata,Italy,37.158090000000000000,13.909590000000000000
447,2,8614267,Agriturismo Colleverde,"Villa Colleverde 10, Pontelatone",81040,Pontelatone,Italy,41.195320000000000000,14.248410000000000000
448,2,7567526,Agriturismo Il Noceto,"C.da Porritto, Santa Domenica Vittoria",98030,Santa Domenica Vittoria,Italy,37.946700000000000000,14.957537000000000000
449,2,8480009,Agriturismo La Mora,"Via Fonte Citerna 7, Assisi",06081,Assisi,Italy,43.043870000000000000,12.572150000000000000
450,2,7849404,Agriturismo Pradone,"Muzza Corona 165, Piumazzo",41013,Piumazzo,Italy,44.540664000000000000,11.063372000000000000
451,2,8036505,Agriturismo Tessenara,"Fraz. Montanaldo, Gubbio",06024,Gubbio,Italy,43.309240000000000000,12.500220000000000000
452,2,7833627,Agustina Suite,"Huerfanos 1400, Santiago",8320000,Santiago,Chile,-33.440170000000000000,-70.656570000000000000
453,2,8062452,Aida Apart,"Schanz 518, Nauders",6543,Nauders,Austria,46.894899000000000000,10.497609000000000000
454,2,8592728,Aida's Victoriana Inn,"Cherry Street ,205, St. Michaels",21663,St. Michaels,United States Of America,38.786910000000000000,-76.222930000000000000
455,2,6560381,Aile Holiday Hotel,"22 Qingyang Yangguang Road, Quanzhou",362200,Quanzhou,China,24.813150000000000000,118.588380000000000000
456,1,5418929,Aimmee's Lodge - UKC2203,Carr Lane,"","","","",""
457,2,7647278,Ainsworth Hot Springs Resort,"3609 Highway 31, Kokanee Glacier Provincial Park","",Kokanee Glacier Provincial Park,Canada,49.734743000000000000,-116.910780000000000000
458,2,8171229,Ainsworth Motel,"3595 Hwy 31, Kokanee Glacier Provincial Park","",Kokanee Glacier Provincial Park,Canada,49.733745000000000000,-116.910336000000000000
459,3,1512827,Aira Hotel,290 Jalan Raja Laut,50350,Sentul,My,3.162864000000000000,101.696177000000000000
460,2,8521368,Airport Express Hotel,"Airport Express, Sanya",572000,Sanya,China,18.309760000000000000,109.410180000000000000
461,2,8628694,Airport Inn,"1441 East Brooks Road, Memphis",38116,Memphis,United States Of America,35.060097000000000000,-90.016239000000000000
462,2,8643041,Airport Palace,"Viale Dei Romagnoli 165, Ardea",00121,Ardea,Italy,41.738424000000000000,12.281867000000000000
463,2,8707227,Airy Bandara Adisutjipto Kalasan Sleman Yogyakarta,"Jl. Raya Yogyasolo Km. 14 Sleman, Sleman",55571,Sleman,Indonesia,-7.768430000000000000,110.470250000000000000
464,2,8667830,Airy Pangandaran Kidang Pananjung 199,"Jalan Kidang Pananjung No. 199 Jawa Bara, Pangandaran",46396,Pangandaran,Indonesia,-7.700910000000000000,108.657780000000000000
465,2,8527283,Airy Riau Progo 6 Bandung,"Jalan Progo 6 Riau, Padalarang",40116,Padalarang,Indonesia,-6.904670000000000000,107.617520000000000000
466,2,8461016,Aishling House,"19 20 Saint Lawrence Road Clontarf, Dublin",D03 C956,Dublin,Ireland,53.363970000000000000,-6.215030000000000000
467,2,7483836,Aisia Aduana,"Bilbao ,orduña ,foru Plaza, 15, Orduna",48460,Orduna,Spain,42.994706000000000000,-3.010122000000000000
468,2,7565868,Aisia Islares,"Bº Islares, 59 Islares, Castro Urdiales",39798,Castro Urdiales,Spain,43.404660000000000000,-3.312550000000000000
469,2,8504223,Aizunke Business Hotel Fuzhou Road - Tsingtao,"No 12 Fuzhou South Road Shinan District, Qingdao",266071,Qingdao,China,36.067490000000000000,120.390880000000000000
470,2,8438372,Aizunke Business Hotel Qingdao Ningxia Road,"No. 168 Ningxia Road, Shinan District, Qingdao",266071,Qingdao,China,36.080630000000000000,120.394960000000000000
471,2,8522159,Akator,"Via Bernardino Galliari 4, Turin",10125,Turin,Italy,45.060400000000000000,7.680350000000000000
472,2,8603612,Akberlin,"Guersu Mah.306 Sok No 14, Kemer",7100,Kemer,Turkey,36.862086000000000000,30.634378000000000000
473,2,8360838,Akcave Suites And Resort,"Akkoy Nr.10, Akkoy, Ibrahimpasa",50400,Ibrahimpasa,Turkey,38.587120000000000000,35.051210000000000000
474,2,7943828,Akosombo Continental Hotel,"Akosomboaccra Highway, Akosombo",0000,Akosombo,Ghana,6.242200000000000000,0.092350000000000000
475,2,8573835,Akron,"Zelinskogo Street, No: 9, 173016, Velikiy Novgorod",173016,Velikiy Novgorod,Russia,58.533719000000000000,31.249208000000000000
476,2,8484648,Akropolis,"16 Grammou, Kastoria",521 00,Kastoria,Greece,40.522300000000000000,21.261660000000000000
477,2,8562530,Akross Hotel,"Via Baiona 18, Ravenna",48123,Ravenna,Italy,44.434200000000000000,12.226500000000000000
478,2,7861976,Al Bourj Hotel,"Muhammad Ibn Abdulwahab Street, Jeddah","",Jeddah,Saudi Arabia,21.497300000000000000,39.188150000000000000
479,2,7547673,Al Diar Palm Hotel Apartments,"Muroor Road, Abu Dhabi","",Abu Dhabi,United Arab Emirates,24.477785000000000000,54.369361000000000000
480,2,8638730,Al Diar Palm Suites Hotel,"Muroor Road, Abu Dhabi",0,Abu Dhabi,United Arab Emirates,24.477785000000000000,54.369361000000000000
481,2,7755690,Al Giardino,"Via Altinia 119/b, Venice",30030,Venice,Italy,45.509520000000000000,12.282430000000000000
482,2,7755279,Al Hamra Palace - Al Steen Branch,"Al Steen Street Beside Civil Defense, Jeddah","",Jeddah,Saudi Arabia,21.526490000000000000,39.194740000000000000
483,2,7676222,Al Janaderia Suites 3,"Palestine Street, Jeddah",21433,Jeddah,Saudi Arabia,21.533291000000000000,39.201591000000000000
484,2,7547668,Al Khobar Plaza,"Al Khobar Plaza Juffair Manama, P.o. Box 15572, Juffair, Bh, Manama",000,Manama,Bahrain,26.212640000000000000,50.605340000000000000
485,2,7386711,Al Majarah Residence 1 Sharjah,"P.o.box 20284,sharjah, Sharjah","",Sharjah,United Arab Emirates,25.365930000000000000,55.391070000000000000
486,2,8665778,Al Majed Park Hotel,"Lamartin Caddesi 21, Istanbul",34437,Istanbul,Turkey,41.039330000000000000,28.984800000000000000
487,3,1030666,Al Massa Bader Hotel,Ibrahim Al Khalil St. Al Misfalah,24231,Makkah,Sa,21.413450000000000000,39.821060000000000000
488,2,7783759,Al Otair Towers Apartment,"Airport Road, Medina","",Medina,Saudi Arabia,24.478870000000000000,39.620950000000000000
489,2,8566938,Al Otair Towers Apartment,"Airport Road, Medina","",Medina,Saudi Arabia,24.478870000000000000,39.620950000000000000
490,2,8712617,Al Pasha,"Zaltoun Street, Damascus","",Damascus,Syria,33.509840000000000000,36.316040000000000000
491,2,7813838,Al Principato DI Pignolo,"Via San Tomaso, 1a, 24121 Bergamo Bg, Italy, Bergamo",24121,Bergamo,Italy,45.701610000000000000,9.672879000000000000
492,1,11045889,Al Salam Rotana,Africa Road,0,Khartoum,SD,"",""
493,2,8598764,Al Teatro,"Via Marconi 10, Viterbo",01100,Viterbo,Italy,42.420330000000000000,12.107380000000000000
494,2,7777183,Al Waddan Hotel Tripoli,"Dahara, Tripoli",1,Tripoli,Libya,32.893363000000000000,13.190785000000000000
495,2,7857166,Al-andalus Apartments Campos,"Plaza De Los Campos, 8, Granada",18009,Granada,Spain,37.172298000000000000,-3.596157000000000000
496,2,8467181,Alambra,"Vico Sant Aniello 21, Sorrento",80067,Sorrento,Italy,40.625510000000000000,14.375620000000000000
497,3,8681838,Alan's Cottage,10 Stables Court,"","","","",""
498,2,8531522,Alankar Inn,"Alankar Circle,gandhi Nagar, Vijayawada",520003,Vijayawada,India,16.515740000000000000,80.626980000000000000
499,2,7905171,Alaska Hotel,"Luxor West Bank, Habu Village Next To Habu Temple Site, Luxor",85952,Luxor,Egypt,25.718470000000000000,32.598790000000000000
500,2,8613158,Alaska Ocean View B And B,"1101 Edgecumbe Drive, Sitka",99835,Sitka,United States Of America,57.063052000000000000,-135.350247000000000000
501,2,7586407,Alba Lodge,"232 Renfrew Street, Glasgow",G3 6TX,Glasgow,United Kingdom,55.866649000000000000,-4.266830000000000000
502,2,8737775,Albana Hotel St Moritz,"Via Maistra 6, St. Moritz, Switzerland, Engadin",7500,Engadin,Switzerland,46.497506000000000000,9.838876000000000000
503,2,8645171,Albatros,"El Mrazka, Hammamet",8050,Hammamet,Tunisia,36.423147000000000000,10.670257000000000000
504,2,8437187,Albatros Vittoria Vaticano,"Via La Goletta 19, Rome",00192,Rome,Italy,41.908470000000000000,12.452330000000000000
505,3,10345912,Albena Suite,"\"Слънчев Бряг  \"\"Галери - 2\"\" секция А",+359887933606,"ет 4 ап14.\"",Sunny Beach,0,42.692350000000000000
506,2,7838113,Albergo Al Bivio,"Via Giovanni Prati 2 4 Località Nosellari 38064 Folgaria Dolomites Folgaria, Folgaria",38064,Folgaria,Italy,45.931185000000000000,11.245161000000000000
507,2,7444175,Albergo Al Ponte Antico,"Via Aurelia 58, Carrodano",19020,Carrodano,Italy,44.239960000000000000,9.657170000000000000
508,2,7736531,Albergo Astron,"Via Giulio Togni 14, Brescia",25122,Brescia,Italy,45.533110000000000000,10.210640000000000000
509,2,8645758,Albergo Costa,"Via Biase Lauriola, Cn, San Giovanni Rotondo",33905,San Giovanni Rotondo,Italy,41.708720000000000000,15.718430000000000000
510,2,7568225,Albergo La Foresta,"Via S. Giovanni Gualberto 24 Vallombrosa, Reggello",50066,Reggello,Italy,43.732526000000000000,11.556402000000000000
511,2,8533120,Albergo Pensione Italia,"Via Marina Grande 204, Capri",80073,Capri,Italy,40.556950000000000000,14.234290000000000000
512,2,7568345,Albergo Purtud,"Strada Val Veny, Courmayeur",11013,Courmayeur,Italy,45.807350000000000000,6.931370000000000000
513,2,7738192,Albergo Ristorante Lo Scoiattolo,"Strada Provinciale Majelletta 7 Passo Lanciano 66010, Pretoro",66010,Pretoro,Italy,42.198025000000000000,14.120584000000000000
514,2,7858244,Albergo Ristorante Valtellina,"Via Bellinzona 265, Como",22100,Como,Italy,45.830444000000000000,9.038193000000000000
515,2,7678473,Albergo Toscana,"Piazza Nazario Sauro 5 Acquapendente, Acquapendente",01021,Acquapendente,Italy,42.743500000000000000,11.865350000000000000
516,2,8412238,Albergo Villa Del Sole,"Viale Fidenza 37, Salsomaggiore Terme",43039,Salsomaggiore Terme,Italy,44.809888000000000000,10.026328000000000000
517,2,7736844,Albergue Da Costa,"Av. Praia De Ponta Negra, 8.932, Natal",59094-100,Natal,Brazil,-5.869970000000000000,-35.181810000000000000
518,2,7606200,Albergue Juvenil Madrid,"Mejía Lequerica 21, Madrid",28004,Madrid,Spain,40.428186000000000000,-3.699474000000000000
519,2,7536910,Albert Premier Hotel,"2 A Rue Albert 1er, Luxembourg",1117,Luxembourg,Luxembourg,49.606980000000000000,6.118050000000000000
520,2,7665872,Albert Shafsky House B&b,"2942 Coloma Street, Placerville",CA 95667,Placerville,United States Of America,38.730101000000000000,-120.804962000000000000
521,2,7497644,Alberta Place Suite Hotel,"10049 103 Street, Edmonton",T5J 2W7,Edmonton,Canada,53.540253000000000000,-113.497296000000000000
522,2,7571019,Albion,"28 Rue Bachelier 31000, Toulouse",31000,Toulouse,France,43.606981000000000000,1.451834000000000000
523,2,8558887,Albionette Hotel,"Peroutkova 570 83, Prague",15800,Prague,Czech Republic,50.058850000000000000,14.376780000000000000
524,2,7568935,Albufera Gardens Apartments,"Carretera Villaverde Vallecas 295, Madrid","",Madrid,Spain,40.376180000000000000,-3.631360000000000000
525,2,8597777,Albula,"Via Cecco Angiolieri 34,00010 Tivoli Terme,roma Zip : 00010, Rome, Italy, Tivoli",00019,Tivoli,Italy,41.955986000000000000,12.719906000000000000
526,2,8561793,Alcazar,"6 Almutanabi Street Wadi El Joz, Jerusalem",91204,Jerusalem,Israel,31.790072000000000000,35.237268000000000000
527,2,8570358,Alcoceber Torreblanca 3000,"Costa Blanca 2 Costa De Azahar, Castello",12596,Castello,Spain,40.195803000000000000,0.224972000000000000
528,2,6928146,Alday Apartment By Feelfree Rentals,"Sancho El Sabio, 28, San Sebastian",20010,San Sebastian,Spain,43.308229000000000000,-1.979953000000000000
529,2,8511413,Aldemar Paradise Village -all Inclusive,"Kallithea, Rhodes",85 100,Rhodes,Greece,36.396620000000000000,28.229940000000000000
530,2,8610105,Alderson Mews,1 Alderson Mews,"","","","",""
531,3,11413004,Aldodi,"\"Carretera de Adina Fabal n\"\"5",+34 661 56 29 21,"Portonovo\"",Xesteriña,0,42.415880000000000000
532,1,10672889,Aleksandra Viesu Namiņš,"\"\"\"Čiekuri\"\"",+37126720023,"Lielie Dzerkaļi\"",Aglona,0,56.120200000000000000
533,2,7444555,Alexandra,"1640 Nadrazni, Prague, Cz, Roztoky",25263,Roztoky,Czech Republic,50.159292000000000000,14.397658000000000000
534,2,8325507,Alfa Najed Apartment,"Al Nahda Road, Gassim",51431,Gassim,Saudi Arabia,26.383271000000000000,43.922633000000000000
535,2,8483696,Alfa Najed Apartment,"Al Nahda Road, Gassim",51431,Gassim,Saudi Arabia,26.381310000000000000,43.923663000000000000
536,2,7763412,Alfaf Suites,"Sari Street, Jeddah",99999*,Jeddah,Saudi Arabia,21.582760000000000000,39.192260000000000000
537,2,8644029,Alfonso,"Triq Il Qaghliet, St. Julian's",STJ 10,St. Julian's,Malta,35.920820000000000000,14.490140000000000000
538,2,8490106,Alfred’s Lodge,"23 Ormond Road, Wantage",OX12 8EG,Wantage,United Kingdom,51.587830000000000000,-1.420030000000000000
539,3,10727563,Algarve Paraíso / Portofino,"\"Edificio \"\" Porto Fino\"\"",-8.12253,Lote 5.1.10.2.C-fraçao H,"11 - 1º andar\"",0,0
540,2,6639680,Ali Baba Resort Pranburi,"169/8 Moo.3, Paknampran, Pranburi",77220,Pranburi,Thailand,12.359820000000000000,99.998080000000000000
541,1,11476270,Alice Cottage,Front Street,"","","","",""
542,2,8652818,Alice Home Zhongxiao,"No.17 Aly. 18 Ln. 31 Sec. 5 Zhongxiao E. Rd Daan District, Taipei",106,Taipei,Taiwan,25.041690000000000000,121.565830000000000000
543,2,8614357,Alice Springs Airport Motel,"115 Gap Road, The Gap",0870,The Gap,Australia,-23.721100000000000000,133.869000000000000000
544,2,8527513,Alisa Resort,"205/1 Baan Non Saat, Udonphen Rd. Amper Phen, Ban Dong",41150,Ban Dong,Thailand,16.971590000000000000,102.906530000000000000
545,3,11459903,All Seasons Bed & Breakfast,13 Victoria Park,BS23 2HZ,Westonsupermare,Gb,51.353930000000000000,-2.983230000000000000
546,2,8594076,All Seasons Crows Nest Sydney,"220 Pacific Highway, Crows Nest",2065,Crows Nest,Australia,-33.830170000000000000,151.202087000000000000
547,1,8643005,Allandale,Allan Dale,"","","","",""
548,2,7744636,Allcity Avalon At Gallery Place,"770 5th St. Nw, Washington",20001,Washington,United States Of America,38.899400000000000000,-77.019200000000000000
549,2,8472129,Allen Acres Bed And Breakfast,"5070 Hwy 399, Leesville",70656,Leesville,United States Of America,30.959950000000000000,-93.037900000000000000
550,4,10248827,Allerdale - UK35758,Brigham Caravan Park,"","","","",""
551,3,8491463,Allerton House,Allerton House,"","","","",""
552,2,8602459,Allson Residence Twr B 1804,"Jl. Senen Raya No. 135137, Jakarta",10410,Jakarta,Indonesia,-6.173840000000000000,106.839680000000000000
553,2,8492086,Allt Gynack Guest House,"1 High Street, Kingussie",PH21 1HS,Kingussie,United Kingdom,57.079980000000000000,-4.052550000000000000
554,2,8087276,Alma Viva,"Alsina 2585, Mar Del Plata",7300,Mar Del Plata,Argentina,-38.012191000000000000,-57.541578000000000000
555,4,69827096,Almapura Al Kantara,Bp 16 4116 Zoune Touritique,4116,Aghir,Tunisia,33.758293000000000000,11.008374000000000000
556,2,8053108,Almhaus Perfler,"Brunachweg 8, Bad Kleinkirchheim",9546,Bad Kleinkirchheim,Austria,46.844476000000000000,13.762693000000000000
557,2,8717956,Almhütten Moll Am Haldensee,"Seestr. 3, Graen",6673,Graen,Austria,47.495224000000000000,10.557149000000000000
558,2,7844788,Almost Home Accommodations Bed And Breakfast,"1500 Cottonwood Lane, Kenai Peninsula",99603,Kenai Peninsula,United States Of America,59.670634000000000000,-151.501020000000000000
559,2,7859338,Almost Home Lodge,"3306 Shepherd Of The Hills Expwy, Branson",65616,Branson,United States Of America,36.652964000000000000,-93.284122000000000000
560,2,7395951,Almuthana Hotel,"King Fahad Road Olaya, Riyadh",11312,Riyadh,Saudi Arabia,24.712450000000000000,46.671820000000000000
561,3,10920046,Almyra Seaside,Perdika,18010,Pérdhika,Gr,37.694560000000000000,23.457300000000000000
562,4,11455880,Alnwick Pad,"19 Malthouse,","","","","",""
563,2,8592929,Aloha Loyang,"159w Jalan Loyang Besar Singapore, Singapore",507020,Singapore,Singapore,1.380657000000000000,103.961638000000000000
564,2,7608428,Alojamiento De Turismo Rural Vista Blanca,"Vista Blanca 22, Cenes De La Vega",18190,Cenes De La Vega,Spain,37.161250000000000000,-3.540376000000000000
565,1,39301004,Alpenapart Montafon - Bitschweil Hüsle,Bitschweilstraße 31a,6774,Tschagguns,Austria,47.059989400000000000,9.918718500000000000
566,3,787578,Alpenapart Montafon - Bitschweil Hüsle,Bitschweilstraße 31a,6774,Schruns,At,47.059990000000000000,9.918720000000000000
567,1,33242204,Alpenchalets Waldheim,Dornau 329,6292,Finkenberg,Austria,47.149277100000000000,11.816452500000000000
568,2,7782319,Alpenchalets Waldheim,"Dornau 329, Finkenberg",6292,Finkenberg,Austria,47.149277000000000000,11.816453000000000000
569,2,7651744,Alpengasthof Plattenrainalm,"Timls 18, Arzl Im Piztal",6471,Arzl Im Piztal,Austria,47.199292000000000000,10.736365000000000000
570,2,7585768,Alpenhotel Zechmeisterlehen,"Wahlstr. 35, Schoenau Am Koenigssee",83471,Schoenau Am Koenigssee,Germany,47.615201000000000000,12.976412000000000000
571,2,8535173,Alpine Comfort,"Chalet Cygnet Chemin Des Raches 35 Saclentse, Nendaz",1996,Nendaz,Switzerland,46.172040000000000000,7.316680000000000000
572,2,8527122,Alpine Guest House,"49 Newcomen Terrace, Teesside",TS10 1DB,Teesside,United Kingdom,54.619300000000000000,-1.075290000000000000
573,2,8452153,Alpine Lodge Guest House,"1 Thornsett Hardwick Mount, Buxton",SK17 6PS,Buxton,United Kingdom,53.258190000000000000,-1.910430000000000000
574,2,8524302,Alpiner Lodge,"424 Lincoln Ave, Oak Creek",80487,Oak Creek,United States Of America,40.483970000000000000,-106.830770000000000000
575,2,10005022,Alt Ardoch Cottage - UK33214,Altardoch,"","","","",""
576,2,7816199,Alt Na Craig House,"Glenmore Road, Oban",PA34 4PG,Oban,United Kingdom,56.405730000000000000,-5.490420000000000000
577,2,8592827,Alt Na Craig House,"Glenmore Road, Oban",PA34 4PG,Oban,United Kingdom,56.406628000000000000,-5.490005000000000000
578,4,8422318,Altbeg,Altbeg,"","","","",""
579,4,9988049,Altbeg Cottage,Brodick,"","","","",""
580,2,8623430,Alte Neustadt Garni,"Grosse Johannisstr. 228 230, Bremen",28199,Bremen,Germany,53.074290000000000000,8.791280000000000000
581,2,8603105,Altes Gasthaus Luebben,"Duisenburger Str. 71, Lingen",49811,Lingen,Germany,52.556600000000000000,7.386900000000000000
582,2,7987818,Altes Rathaus Grevesmühlen,"Augustbebelstr. 1, Grevesmuehlen",23936,Grevesmuehlen,Germany,53.864510000000000000,11.184860000000000000
583,2,7491120,Althoff Schlosshotel Lerbach,"Lerbacher Weg, Bergisch Gladbach",51465,Bergisch Gladbach,Germany,50.983367000000000000,7.154390000000000000
584,2,8616315,Altieri,"Via Tuderte 54 A 06054 Fratta Todina, Fratta Todina",06054,Fratta Todina,Italy,42.852430000000000000,12.373378000000000000
585,3,3759331,Altis Hostel,Pod Plynojemem 7,18000,Liben,Cz,50.099456700000000000,14.470599500000000000
586,2,8623921,Altstadthotel,"Nordwall 4, Celle",29221,Celle,Germany,52.626430000000000000,10.082640000000000000
587,2,7777267,Am Bauenhaus Gaestehaus,"Am Bauenhaus 34, Dusseldorf",40472,Dusseldorf,Germany,51.275537000000000000,6.845869000000000000
588,2,8591111,Am Lerchenberg,"Hindemithstr. 5a, Mainz",55127,Mainz,Germany,49.958600000000000000,8.197300000000000000
589,2,8487613,Am Luisenbad,"Koloniestr. 3 4, Berlin",13357,Berlin,Germany,52.554370000000000000,13.377210000000000000
590,3,10949613,Am Nawr - 3 Bedroom Holiday Home - Pentlepoir,"Am Nawr,","","","","",""
591,2,8601091,Am Wasserturm,"Bielefelder Str. 143, Rhedawiedenbruck",33378,Rhedawiedenbruck,Germany,51.849000000000000000,8.324000000000000000
592,2,7802329,Amable Buenos Aires Hostel Boutique,"Avenida Corrientes 4965, Buenos Aires",1414,Buenos Aires,Argentina,-34.600880000000000000,-58.435610000000000000
593,2,7814278,Amadeo Hotel,"Waldhausener Str. 122 128, Moenchengladbach",41061,Moenchengladbach,Germany,51.196344000000000000,6.423687000000000000
594,1,8352521,Amanera,"Auto 5 Carretera, Rio San Juan Cabrera Rio",CP 33300,San Juan,DO,"",""
595,2,8635818,Amanta House Patong,"Hat Patong Rd. Patong Beach 5 17, Phuket",83150,Phuket,Thailand,7.899637000000000000,98.299199000000000000
596,2,8736135,Amanusa,"Nusa Dua Kawasan Bali Golf & Country Club Nusa Dua 80363 Indonesia, Nusa Dua",80363,Nusa Dua,Indonesia,-8.826747000000000000,115.208576000000000000
597,2,8592783,Amar Vilas,"183 Zone 1, Mp Nagar, Bhopal, In, Bhopal",462011,Bhopal,India,23.260400000000000000,77.410800000000000000
598,2,7577632,Amaryl City Hotel Am Kurfurstendamm,"Lietzenburger Str 76, Berlin",10719,Berlin,Germany,52.500065000000000000,13.324093000000000000
599,4,1277590,Amaryllis Inn,25 Menandrou & Pireos Streets Omonia Square,1053,Athens,Greece,37.981636000000000000,23.723602000000000000
600,2,11458332,Amazing home in Helsey with WiFi,Helsey Farm Cottages,"","","","",""
601,2,7699001,Amazon Bungalow,"285 Moo 5 Amphaeng Maung Ao Nang, Krabi",81000,Krabi,Thailand,8.033130000000000000,98.861600000000000000
602,2,7659026,Ambassador Motel,"125 Chestnut Street, Versailles",IN 47390,Versailles,United States Of America,40.197207000000000000,-84.806852000000000000
603,2,8603568,Amber,"Hatipirimi Mah. Inonu Cad 194 Street No 7, Marmaris",48700,Marmaris,Turkey,36.850642000000000000,28.252748000000000000
604,2,7590637,Amber Bay Guesthouse Galway,"6 Caiseal Mara, Salthill, Galway","",Galway,Ireland,53.260300000000000000,-9.107640000000000000
605,2,8522176,Amber Gardens Guesthouse,"66 Plantation Drive Byron Bay, Ewingsdale",2481,Ewingsdale,Australia,-28.644260000000000000,153.550670000000000000
606,2,7755618,Amber Hotel Bavor,"Na Ohrade 31, 386 01 Strakonice, Susice",38601,Susice,Czech Republic,49.258609000000000000,13.906116000000000000
607,2,7824049,Amber House,"36 Bootham Crescent, York",YO30 7AH,York,United Kingdom,53.967258000000000000,-1.088652000000000000
608,2,7845137,Amber Motel,"10825 Crenshaw Boulevard, Inglewood",90303,Inglewood,United States Of America,33.937130000000000000,-118.326831000000000000
609,2,5092442,Amber Nook,Amber Nook,"","","","",""
610,2,7668483,Ambika B&b,"Piazzetta Dei Saraceni 2, Lecce",73100,Lecce,Italy,40.352210000000000000,18.165480000000000000
611,2,8604779,Ambleside Guest House York,"62 Bootham Cres, York Yo30 7ah, Uk, York",YO30 7AH,York,United Kingdom,53.968105000000000000,-1.087683000000000000
612,2,7497427,Amc - Apartment In Wilmersdorf / Schoeneburg,"Wexstr. 23, Berlin",10715,Berlin,Germany,52.479150000000000000,13.331780000000000000
613,3,5654987,Amelia 5,5 Viale Amelia,00181,Centocelle,It,41.877660000000000000,12.525100000000000000
614,2,7382223,American Inn,"10220 Us Route 42, Marysville",43040,Marysville,United States Of America,40.158597000000000000,-83.233235000000000000
615,4,10176220,American School Bus - 1 Bedroom - Blossom Farm - Tiers Cross,Blossom Farm,"","","","",""
616,2,8443050,American Vacation Homes,"12211 Regency Village Drive, Suite 12 Check In Office, Clarcona",32821,Clarcona,United States Of America,28.389640000000000000,-81.488580000000000000
617,2,7704207,Americas Best Inn Huntsville,"1304 N Memorial Parkway, Huntsville",35801,Huntsville,United States Of America,34.745730000000000000,-86.600167000000000000
618,2,7682873,Americas Best Value Inn,"8145 Highway 222, Arlington",38069,Arlington,United States Of America,35.397145000000000000,-89.412403000000000000
619,2,7683015,Americas Best Value Inn,"10101 Alcovy Road, Covington",30014,Covington,United States Of America,33.617310000000000000,-83.844170000000000000
620,2,7763811,Americas Best Value Inn,"3304 Isler Street, Greensboro",27407,Greensboro,United States Of America,36.043060000000000000,-79.845510000000000000
621,2,7839228,Americas Best Value Inn,"6037 Route 96, Honeoye Falls",14425,Honeoye Falls,United States Of America,42.974400000000000000,-77.353850000000000000
622,2,8449022,Americas Best Value Inn,"4402 Dakota Ave, South Sioux City",68776,South Sioux City,United States Of America,42.446380000000000000,-96.414240000000000000
623,2,7580700,Americas Best Value Inn & Suites-san Francisco/golden Gate,"2322 Lombard St, San Francisco",94123,San Francisco,United States Of America,37.799380000000000000,-122.439770000000000000
624,2,8462104,Americas Best Value Inn - Bell Tower,"200 East Noleman, Centralia",62801,Centralia,United States Of America,38.528720000000000000,-89.132760000000000000
625,2,7801587,Americas Best Value Inn And Suites Bisbee,"1372 Hwy 92, Hereford",85603,Hereford,United States Of America,31.396330000000000000,-109.929730000000000000
626,2,7737154,Americas Best Value Inn Mountain View,"707 Sylamore Ave, Mountain View",72560,Mountain View,United States Of America,35.874698000000000000,-92.102315000000000000
627,2,8483711,Americas Best Value Inn Springfield I65 Battlefield,"3404 East Ridgeview, Springfield",65804,Springfield,United States Of America,37.159190000000000000,-93.226380000000000000
628,2,8475059,Americas Best Value Inn White Springs/live Oak,"3119 Cr 136, White Springs",32096,White Springs,United States Of America,30.316880000000000000,-82.808240000000000000
629,2,8512066,Americas Best Value Inn-marianna,"2086 Highway 71, Marianna",32448,Marianna,United States Of America,30.716690000000000000,-85.184160000000000000
630,2,8561417,Americas Studios All Suites,"Uruguay 847, Buenos Aires",1015,Buenos Aires,Argentina,-34.598804000000000000,-58.387847000000000000
631,2,7594801,Americinn Hotel & Suites Oklahoma City Airport,"1905 S Meridian Ave, Oklahoma City",73108,Oklahoma City,United States Of America,35.444850000000000000,-97.601140000000000000
632,2,7441104,Americinn Lodge & Suites Of Oakdale,"6630 Hudson Boulevard North, Oakdale",55128,Oakdale,United States Of America,44.949062000000000000,-92.971368000000000000
633,2,8550551,Amerihill Inn And Suites,"2600 Preddy Blvd, Greensboro",27407,Greensboro,United States Of America,36.008330000000000000,-79.846250000000000000
634,2,8582407,Amerton Farm,"Stowe By Chartley, Stafford",ST18 0LA,Stafford,United Kingdom,52.846370000000000000,-2.008280000000000000
635,2,8643034,Ami Hotel,"4 Am Israel Hai Hayarkon 152, Tel Aviv",63455,Tel Aviv,Israel,32.084038000000000000,34.769894000000000000
636,2,7713465,Amontanara Pension,"Spitzwiesenweg 243, Nauders",6543,Nauders,Austria,46.895730000000000000,10.498880000000000000
637,2,7715082,Amore' Boutique Bed And Breakfast,"145 Kahibah Road, Charlestown",2290,Charlestown,Australia,-32.964864000000000000,151.704607000000000000
638,2,8267978,Amoura Beach Resort,"7/138,la Calypso Lane , Saunta Vaddo, Baga ,bardez, Goa",403516,Goa,India,15.560170000000000000,73.750870000000000000
639,2,8364987,Amsi North Hill (amsi-sf.nhcl1275),"725 Pine Street, San Francisco",94108,San Francisco,United States Of America,37.791261000000000000,-122.407581000000000000
640,2,7442005,Amsi North Hill Apartment,"725 Pine Street, San Francisco",94108,San Francisco,United States Of America,37.791172000000000000,-122.407769000000000000
641,2,7540221,Amstel Canal Guest House,"Staalkade 2, Amsterdam",1011 JN,Amsterdam,Netherlands,52.367721000000000000,4.897621000000000000
642,2,7485449,Amuse Hotel,"25th Martiou Street, Chersonissos",70014,Chersonissos,Greece,35.311474000000000000,25.400043000000000000
643,1,8896966,An Exclusive Guest House,49 Boekenhout street,"","","","",""
644,2,8508904,An Sealladh,Inver,"","","","",""
645,1,11477834,An T Abhalt,An T Abhall,"","","","",""
646,3,7161869,Anaheim Entertainer by Getastay,9 Mada Drive,"","","","",""
647,4,33779065,Anamar Patmos,Skala,855 00,Patmos,Greece,37.320820000000000000,26.540040000000000000
648,2,8717302,Anantya Candidasa,"Jl. Puri Bagus Karangasem, Karangasem",80851,Karangasem,Indonesia,-8.512609000000000000,115.575356000000000000
649,2,7568829,Anatur,"Plaza Do Souto 3, Cervo",27891,Cervo,Spain,43.670230000000000000,-7.408130000000000000
650,2,7597246,Anchor House Dublin,"49 Lower Gardiner Street, Dublin",D01 T658,Dublin,Ireland,53.350210000000000000,-6.254070000000000000
651,3,7491437,Anchor House Dublin,49 Lower Gardiner Street,D01 T658,Dublin,Ie,53.350212000000000000,-6.254069000000000000
652,3,11458158,Anchor Well - 2 Bedroom Cottage - Ludchurch - Narberth,"The Beacon,","","","","",""
653,3,8344371,Anchor's Away,Apartment 3,"","","","",""
654,2,7743159,Anchorage Beach Resort,"Cowpert Bay, Jost Van Dyke",00802,Jost Van Dyke,British Virgin Islands,18.314744000000000000,-64.847014000000000000
655,2,9990564,Anchorage Cottage,Anchorage Cottage,"","","","",""
656,2,7579933,Anchorage Inn Charleston,"26 Vendue Range, Charleston",29401,Charleston,United States Of America,32.778813000000000000,-79.926438000000000000
657,2,7381352,Andaman Princess Resort & Spa,"111 Moo 3 Tambon Koh Kor Khao Amphur Takuapa Phang Nga 82190 Thailand, Takua Pa",82190,Takua Pa,Thailand,8.874651000000000000,98.268842000000000000
658,2,8671342,Andaman Residency - Port Blair,"J.n.road,opp.nirmala School,gol Ghar, Port Blair",744103,Port Blair,India,11.669220000000000000,92.727870000000000000
659,2,7788369,Andarilho Hostel Pousada,"Rua Aracaju 40  Barra, Salvador",40140360,Salvador,Brazil,-13.004540000000000000,-38.525680000000000000
660,2,7466218,Anderslövs Gästgivaregård,"Landsvägen 39, Trelleborg",231 70,Trelleborg,Sweden,55.438220000000000000,13.318750000000000000
661,2,8437052,Andrea's Rome,"Via Sarnano 36, Rome",00156,Rome,Italy,41.940070000000000000,12.579340000000000000
662,3,10557742,Andreas Apartments,Andreas Apartments Kefalos,85301,Kéfalos,Gr,36.737070000000000000,26.969030000000000000
663,2,8670114,Andrey Hotel,"Avenida Jose Messias Ferreira. 1031, Buriti Alegre",75660 000,Buriti Alegre,Brazil,-18.150786000000000000,-49.043233000000000000
664,2,7763982,Andrey Hotel Buriti Alegre,"Avenida Jose Messias Ferreira 979, Buriti Alegre",75660 000,Buriti Alegre,Brazil,-18.151182000000000000,-49.043237000000000000
665,2,6833558,Andromache Hotel,"Piso Livadi 1, Paros",84400,Paros,Greece,37.035648000000000000,25.258306000000000000
666,2,8517077,Anemones Hotel,"Kamari, Santorini Island",84700,Santorini Island,Greece,36.378060000000000000,25.485520000000000000
667,2,8625871,Aneta Hotel,"Kamari Santorini, Santorini Island",84700,Santorini Island,Greece,36.371000000000000000,25.477870000000000000
668,2,11397274,Anfield Haven,"49 Rocky Lane,","","","","",""
669,1,8390376,Angel Cottage,Wheatfields,"","","","",""
670,3,10282020,Angel Cottage - 3 Bedroom Cottage - Stepaside,Angel Cottage,"","","","",""
671,1,10248782,Angel Lodge,The Grange,"","","","",""
672,3,11060364,Angelina Annex,19 Church Street,"","","","",""
673,2,7577459,Angelina Hotel,"1 Quai Lamennais, Rennes",35000,Rennes,France,48.109797000000000000,-1.680456000000000000
674,2,7682313,Angelos Garden,"Toroni Chalkidiki, Sithonia",63072,Sithonia,Greece,39.986735000000000000,23.903237000000000000
675,3,4986341,Angolo DI Roma,"Via Cairoli, 31",00185,Rome,It,41.892420000000000000,12.506010000000000000
676,3,3569867,Angolo DI Roma Guest House,Via Cairoli 31,00185,Rome,It,41.892400000000000000,12.506040000000000000
677,2,8376703,Angori,Angori,"","","","",""
678,2,8527331,Anh Tu Hotel,"21 Ba Huyen Thanh Quan, Ho Chi Minh City",70000,Ho Chi Minh City,Vietnam,10.775260000000000000,106.689890000000000000
679,3,10033246,Ann's Lodge and Camping,"Plot 190, C40","","","","",""
680,2,8635211,Anna Boutique Residence,"19 Amzaleg Street Neve Zedek, Tel Aviv",65148,Tel Aviv,Israel,32.059981000000000000,34.765373000000000000
681,2,7579284,Anna Hotel,"Lärchenstraße 95, Frankfurt",65933,Frankfurt,Germany,50.096337000000000000,8.597106000000000000
682,1,11435748,Anna's Dream 2 Bedr. Apt.,"\"\"\"Pafia 4\"\" House",+48601069104,"Apartment 306 Agias Theklas 5\"",Paphos,0,34.775400000000000000
683,4,8454049,Annabel's Loft,Bainbridge Ings Caravan & Camp Site,"","","","",""
684,4,10917488,Annie Oswalds Cottage,Adderstone Steading,"","","","",""
685,3,8376490,Annie's Cottage,2 Post Office Terrace,"","","","",""
686,2,7630638,Anntiss Hotel,"No.7,mingchuan Rd., Hualien",97059,Hualien,Taiwan,23.981770000000000000,121.620620000000000000
687,2,7656725,Anoulack Khen Lao Hotel,"No. 059/4, Ban Phonsavanh Xai , Peak District, Phonsavan","",Phonsavan,Laos,19.450970000000000000,103.219360000000000000
688,2,8504689,Ant's Nest And Ant's Hill,"Farm Gunfontein, Vaalwater, Za, Waterberg District",0530,Waterberg District,South Africa,-24.105120000000000000,28.117170000000000000
689,2,7733959,Antalya Palace Hotel,"Caglayan Mah. 2050 Sokak No:2 Lara, Muratpaşa",07230,Muratpaşa,Turkey,36.848309000000000000,30.770774000000000000
690,2,8592980,Antas Hotel Congress & Spa,"Loc. Sant'angelo Km 50.900, Fluminimaggiore",09010,Fluminimaggiore,Italy,39.380310000000000000,8.494381000000000000
691,1,8344202,Antells Farm Barn,Antells Farm,"","","","",""
692,4,9397875,Antfield House,Antfield House,"","","","",""
693,2,7687013,Antica Cascina Liano,"Via Liano, Gargnano",25084,Gargnano,Italy,45.689274000000000000,10.639161000000000000
694,2,7812091,Antica Dimora Le Contrade,"Via Ottavio Maestri 36, Torrita DI Siena",53049,Torrita DI Siena,Italy,43.167160000000000000,11.772350000000000000
695,2,7781657,Antica Terra B&b,"Piazza Municipio, 14, Alliste",73040,Alliste,Italy,39.947550000000000000,18.090190000000000000
696,2,7599772,Antica Torre Viscontea,"Via Italia 61n.13, San Genesio Ed Uniti",27100,San Genesio Ed Uniti,Italy,45.234204000000000000,9.175597000000000000
697,2,8621410,Antico Condotti Ai55 Townhouse,"Via Delle Carrozze 42, Rome",00187,Rome,Italy,41.905920000000000000,12.481220000000000000
698,2,8101787,Antico DI Moda Guesthouse,"Sq. Saint Spiridonos & 1 Papanikolaou, Nafplio",21100,Nafplio,Greece,37.565130000000000000,22.798413000000000000
699,2,7732783,Antico Hotel Del Pomarancio,"Via Roncalli 18, Pomarance",56045,Pomarance,Italy,43.298541000000000000,10.874122000000000000
700,2,8569315,Anton Wallner,"Anton Wallner Strasse 9, Zell Am Seekaprun",A 5700,Zell Am Seekaprun,Austria,47.324218000000000000,12.797843000000000000
701,2,6500827,Antwerp Penthouse,"Charlottalei 72, Antwerp",2018,Antwerp,Belgium,51.207151000000000000,4.419330000000000000
702,1,9354375,Anvil Cottage,The Old Forge,"","","","",""
703,2,7860992,Anzac Wooden Guesthouse & Cafe,"79/28 M.1 soy Jomtien Holiday Hotel Jomtien Beach ,sattahip,chonburi, Pattaya","",Pattaya,Thailand,12.863620000000000000,100.894650000000000000
704,2,7690486,Ao Nang Friendly,"63 Moo 2 Ao Nang, Muang, Krabi, Krabi",81000,Krabi,Thailand,8.034155000000000000,98.833000000000000000
705,3,4170809,Aonang Garden Home,"87/1 Moo 2, Aonang, Muang",81000,Ao Nang Beach,Th,8.034094810485840000,98.829925537109380000
706,4,7832392,Aonang Village Resort,"49/3 Moo 2, Ao Nang Beach",81180,Krabi,Thailand,8.033049000000000000,98.826393000000000000
707,2,8641516,Aosheng'an Sea View Hotel - Xiamen,"No.58 Shapowei Siming District, Xiamen",361000,Xiamen,China,24.438481000000000000,118.087202000000000000
708,2,8541145,Aosheng'an Sea View Hotel Xiamen,"No.58 Shapowei Siming District, Xiamen",361000,Xiamen,China,24.479820000000000000,118.089430000000000000
709,2,8616085,Aoti Business Hotel,"80 Xin Hua Street, Hohhot",010072,Hohhot,China,40.819760000000000000,111.661520000000000000
710,3,10329391,Apart Dengg,647 Waldfeldweg,6290,Mayrhofen,At,47.161590000000000000,11.858060000000000000
711,2,7828274,Apart Espacio Barrancas,"Juramento 1630 1428 Buenos Aires, Buenos Aires",1428,Buenos Aires,Argentina,-34.557622000000000000,-58.449223000000000000
712,3,1506028,Apart Hotel Costa Reñaca,"Barros Arana 154, Reñaca",2540216,Reñaca,CL,-32.974260000000000000,-71.537440000000000000
713,2,7487824,Apart Hotel Leipzig Boehlen,"Am Ring 3, Bohlen",04564,Bohlen,Germany,51.210768000000000000,12.387080000000000000
714,2,8278683,Apart Hotel Miranda,"B.sovetskaya Ulitsa Build.25a, Kingisepp","",Kingisepp,Russia,59.378075000000000000,28.607186000000000000
715,2,7523843,Apart Hotel Premier,"Bulevar Mihaila Lalica Br. 1, Danilovgrad","",Danilovgrad,Montenegro,42.443704000000000000,19.245236000000000000
716,2,7450395,Apart Hotel Primo,"Rua Poeta Walfran De Queiroz 25, Natal",59090179,Natal,Brazil,-5.883212000000000000,-35.173801000000000000
717,2,8438688,Apart Hotel Primo,"Rua Poeta Walfran De Queiroz, 25, Natal",59090-179,Natal,Brazil,-5.883212000000000000,-35.173802000000000000
718,2,8061736,Apart Hotel Villa De Vincenzi,"Rua Doutor Antonio Carlos Da Nova 127, Florianopolis",88054510,Florianopolis,Brazil,-27.427607000000000000,-48.472144000000000000
719,2,8440793,Apart-west,"Eisenzahnstr. 12, Berlin",10709,Berlin,Germany,52.495526000000000000,13.304859000000000000
720,2,8487084,Apartaestudio 1303 - Barrio Granada,"Avenida 6cn 35n50, Cali","",Cali,Colombia,3.473390000000000000,-76.527530000000000000
721,2,8486636,Apartaestudio 1303 Barrio Granada,"Avenida 6cn 35n 50, Cali","",Cali,Colombia,3.443630000000000000,-76.497540000000000000
722,3,10748920,Apartament Alpin Resort Etaj 7,Strada Poiana Doamnei Fn,500001,Poiana Brasov,Ro,45.593660000000000000,25.554680000000000000
723,2,7860913,Apartament Andu Brasov,"Carpatilor 61 Bl. P1, Brasov",500439,Brasov,Romania,45.636757000000000000,25.622177000000000000
724,1,57691505,Apartament Bello - Free Parking,Toruńska 18b,80-747,Gdansk,Poland,54.342140590000000000,18.653722930000000000
725,2,8516055,Apartament Cuba,"Katowicka 63b, Poznan",61-131,Poznan,Poland,52.397830000000000000,16.962520000000000000
726,2,6818142,Apartament Familijny,"Aleja Niepodległości 685, Sopot",81-854,Sopot,Poland,54.431718000000000000,18.561932000000000000
727,2,7024321,Apartament On Belorusskoy,"Bolshoy Kandratevskiy Pereulok 10, Moscow",123056,Moscow,Russia,55.773666000000000000,37.581968000000000000
728,2,8475646,Apartament Solec,"Okrąg 6a/34, Warsaw",00-407,Warsaw,Poland,52.230479000000000000,21.036520000000000000
729,3,10967870,Apartamenti Danna,"\"\"\"Zemzari \"\" Dzīvoklis Nr",24.99806,17.,"3. Stāvs\"",0,0
730,2,10672280,Apartamenti Sniegi,"\"\"\"Sniegi\"\"",+371 28 217896,"Lazdonas pag.\"",Madona,0,56.840920000000000000
731,2,8361622,Apartamento 1 Quadra Da Praia,"Av. N. Senhora De Copacabana 702, Rio De Janeiro",20050 001,Rio De Janeiro,Brazil,-22.971149000000000000,-43.186994000000000000
732,3,11504149,Apartamento 3 suítes com jacuzzi no centro de Bombinhas,73 Rua Peixe Rei,88215-000,Bombinhas,BR,"",""
733,2,8734591,Apartamento Acacias IV Centro Benidorm,"C/mirador 5, 20 E, Costa Blanca",03581,Costa Blanca,Spain,38.541600000000000000,-0.126990000000000000
734,3,10460231,Apartamento Cefas,"\"Avenida de Lugo nº 18 \"\"C\"\" 2º A",42.90567,Pedrouzo,Arca,0,0
735,2,6463795,Apartamento Copa I,"Avenida Nossa Senhora De Copacabana,1141, Rio De Janeiro",22070-011,Rio De Janeiro,Brazil,-22.980456000000000000,-43.191078000000000000
736,3,1072369,Apartamento Copacabana - Quadra Da Praia,"Avenida Nossa Senhora De Copacabana 914, Apto 902 Or 901",22060-002,Ipanema,Br,-22.975420000000000000,-43.189890000000000000
737,3,3986183,Apartamento Duplex Calonge,"Doctor Josep Maria Vilaseca 8486, 2º2º",17251,Calonge,Es,41.858890000000000000,3.078450000000000000
738,2,7064420,Apartamento Escuela Militar,"Los Militares 4717  Apartamento 806, Santiago","",Santiago,Chile,-33.411633000000000000,-70.580300000000000000
739,1,77619004,Apartamento Jacaranda Mar,Avenida Roque Del Este S/n,31130,Puerto Rico De Gran Canaria,Spain,27.786571840000000000,-15.707800110000000000
740,2,6784025,Apartamento Las Condes 2 Dormitorios,"La Gloria N 30, Las Condes, Santiago",7550000,Santiago,Chile,-33.409906000000000000,-70.576601000000000000
741,3,10431794,Apartamento Los tres soles,"\"Calle Bolivia 169 \"\"los tres soles\"\"",-4.36687,2 planta,"apartamento 16\"",0,0
742,3,10022501,Apartamento Mar Azul - T2 na primeira linha de Monte Gordo,"Rua Rua Dom Francisco de Almeida, 11 1 E","","","","",""
743,3,724655,Apartamento Meia Praia,Urb. Pinhal Da Meia Praia  Rua Fernando Namora,8600-315,Meia Praia,Pt,37.114680000000000000,-8.658530000000000000
744,3,10367888,"Apartamento Panorama, 2 Quartos - Reserva Imbassaí","\"BA-099 Apartamento  nº \"\"204\"\"",-37.95666,Bloco 09,"CONDOMÍNIO VILA DOS LÍRIOS\"",0,0
745,2,7026186,Apartamento Pituba,"Rua Piauí, Salvador",41830-270,Salvador,Brazil,-13.006059000000000000,-38.464491000000000000
746,2,8436165,Apartamento Toquinho,"Rua Jose Linhares 134 Apt 301, Rio De Janeiro",22430220,Rio De Janeiro,Brazil,-22.983100000000000000,-43.221690000000000000
747,1,10353200,Apartamento Térreo Estiloso com Piscina no Oka Beach,"\"Gleba 1, Desmembramento da área Merepe \"\"C\"\"",-34.98572,Fazenda,"R. Merepe III - Muro Alto\"",0,0
748,3,10418253,Apartamento Yale,Calle Anzuelo Bloque 26 Apartamento 70 Bajo,35510,Las Playas  Lanzarote,Es,28.920360000000000000,-13.653620000000000000
749,4,8999601,Apartamento en Punta Prima Parque Recoleta,"\"Calle Mar de fondo, 2, residencial \"\"Parque Recoleta\"\"",-0.70847,bloque 2,"piso Bajo A\"",0,0
750,1,11506175,Apartamento encantador na praia do Flamengo ∴,412 Rua Thales de Azevedo Condominio Massayo,41603-280,Salvador,BR,"",""
751,1,45788503,Apartamentos Armando,San Diego 313,8320000,Santiago,Chile,-33.449548030000000000,-70.650839710000000000
752,2,8122489,Apartamentos Armando,"San Diego 313, Santiago",8320000,Santiago,Chile,-33.449454000000000000,-70.650748000000000000
753,3,1484993,Apartamentos Aromar,"Paseo Maritimo 106, Annex To The Hotel Arona",17250,Platja D'aro,Es,41.819420000000000000,3.070640000000000000
754,4,18165833,Apartamentos Aromar,Paseo Maritimo 106 Annex To The Hotel Arona,17250,Castellplatja D'aro,Spain,41.819420000000000000,3.070640000000000000
755,2,7774632,Apartamentos Arrieta,"Cueva De Los Verdes, S/n, Haria","",Haria,Spain,29.133631000000000000,-13.457725000000000000
756,2,6514765,Apartamentos Calpe Residencial 3000,"Corbeta, 5, Costa Blanca",03710,Costa Blanca,Spain,38.643560000000000000,0.048786000000000000
757,2,6414623,Apartamentos Carolina,"Los Cardones, S/n, Mogan","",Mogan,Spain,27.793992000000000000,-15.709666000000000000
